,output,Adresse
0,"{'results': [{'address_components': [{'long_name': '5', 'short_name': '5', 'types': ['street_number']}, {'long_name': 'Haldenstrasse', 'short_name': 'Haldenstrasse', 'types': ['route']}, {'long_name': 'Baar', 'short_name': 'Baar', 'types': ['locality', 'political']}, {'long_name': 'Zug', 'short_name': 'Zug', 'types': ['administrative_area_level_2', 'political']}, {'long_name': 'Zug', 'short_name': 'ZG', 'types': ['administrative_area_level_1', 'political']}, {'long_name': 'Switzerland', 'short_name': 'CH', 'types': ['country', 'political']}, {'long_name': '6340', 'short_name': '6340', 'types': ['postal_code']}], 'formatted_address': 'Haldenstrasse 5, 6340 Baar, Switzerland', 'geometry': {'location': {'lat': 47.1960393, 'lng': 8.538261499999999}, 'location_type': 'ROOFTOP', 'viewport': {'northeast': {'lat': 47.19738828029149, 'lng': 8.5396104802915}, 'southwest': {'lat': 47.1946903197085, 'lng': 8.536912519708498}}}, 'partial_match': True, 'place_id': 'ChIJn-mayMyrmkcRHHbQj9fra68', 'plus_code': {'compound_code': '5GWQ+C8 Baar, Switzerland', 'global_code': '8FVC5GWQ+C8'}, 'types': ['street_address']}], 'status': 'OK'}","Haldenstrasse 5, 6340 Baar"
1,"{'results': [{'address_components': [{'long_name': '5', 'short_name': '5', 'types': ['street_number']}, {'long_name': 'Gewerbestrasse', 'short_name': 'Gewerbestrasse', 'types': ['route']}, {'long_name': 'Cham', 'short_name': 'Cham', 'types': ['locality', 'political']}, {'long_name': 'Zug', 'short_name': 'Zug', 'types': ['administrative_area_level_2', 'political']}, {'long_name': 'Zug', 'short_name': 'ZG', 'types': ['administrative_area_level_1', 'political']}, {'long_name': 'Switzerland', 'short_name': 'CH', 'types': ['country', 'political']}, {'long_name': '6330', 'short_name': '6330', 'types': ['postal_code']}], 'formatted_address': 'Gewerbestrasse 5, 6330 Cham, Switzerland', 'geometry': {'bounds': {'northeast': {'lat': 47.1886032, 'lng': 8.4736658}, 'southwest': {'lat': 47.1881553, 'lng': 8.4730358}}, 'location': {'lat': 47.1883571, 'lng': 8.4734099}, 'location_type': 'ROOFTOP', 'viewport': {'northeast': {'lat': 47.1897282302915, 'lng': 8.474699780291502}, 'southwest': {'lat': 47.1870302697085, 'lng': 8.472001819708497}}}, 'partial_match': True, 'place_id': 'ChIJmy9clZAAkEcRQQw9Ua5HSFg', 'types': ['premise']}], 'status': 'OK'}","Gewerbestrasse 5, 6330 Cham"
2,"{'results': [{'address_components': [{'long_name': '5A', 'short_name': '5A', 'types': ['street_number']}, {'long_name': 'Neuhofstrasse', 'short_name': 'Neuhofstrasse', 'types': ['route']}, {'long_name': 'Baar', 'short_name': 'Baar', 'types': ['locality', 'political']}, {'long_name': 'Zug', 'short_name': 'Zug', 'types': ['administrative_area_level_2', 'political']}, {'long_name': 'Zug', 'short_name': 'ZG', 'types': ['administrative_area_level_1', 'political']}, {'long_name': 'Switzerland', 'short_name': 'CH', 'types': ['country', 'political']}, {'long_name': '6340', 'short_name': '6340', 'types': ['postal_code']}], 'formatted_address': 'Neuhofstrasse 5A, 6340 Baar, Switzerland', 'geometry': {'bounds': {'northeast': {'lat': 47.1914599, 'lng': 8.514715599999999}, 'southwest': {'lat': 47.1912367, 'lng': 8.514339}}, 'location': {'lat': 47.1913654, 'lng': 8.5144487}, 'location_type': 'ROOFTOP', 'viewport': {'northeast': {'lat': 47.1926972802915, 'lng': 8.5158762802915}, 'southwest': {'lat': 47.1899993197085, 'lng': 8.513178319708496}}}, 'partial_match': True, 'place_id': 'ChIJsW_QeECqmkcRMAKLU-BOyoc', 'types': ['premise']}], 'status': 'OK'}","Neuhofstrasse 5A, 6340 Baar"
3,"{'results': [{'address_components': [{'long_name': '76B', 'short_name': '76B', 'types': ['street_number']}, {'long_name': 'Zugerstrasse', 'short_name': 'Zugerstrasse', 'types': ['route']}, {'long_name': 'Baar', 'short_name': 'Baar', 'types': ['locality', 'political']}, {'long_name': 'Zug', 'short_name': 'Zug', 'types': ['administrative_area_level_2', 'political']}, {'long_name': 'Zug', 'short_name': 'ZG', 'types': ['administrative_area_level_1', 'political']}, {'long_name': 'Switzerland', 'short_name': 'CH', 'types': ['country', 'political']}, {'long_name': '6340', 'short_name': '6340', 'types': ['postal_code']}], 'formatted_address': 'Zugerstrasse 76B, 6340 Baar, Switzerland', 'geometry': {'bounds': {'northeast': {'lat': 47.18342879999999, 'lng': 8.518711399999999}, 'southwest': {'lat': 47.1830714, 'lng': 8.5184587}}, 'location': {'lat': 47.1832252, 'lng': 8.518616999999999}, 'location_type': 'ROOFTOP', 'viewport': {'northeast': {'lat': 47.18459908029149, 'lng': 8.519934030291502}, 'southwest': {'lat': 47.18190111970849, 'lng': 8.517236069708497}}}, 'partial_match': True, 'place_id': 'ChIJP8SgAkWqmkcR35s6I_75uNk', 'types': ['premise']}], 'status': 'OK'}","Zugerstrasse 76B, 6340 Baar"
4,"{'results': [{'address_components': [{'long_name': '1', 'short_name': '1', 'types': ['street_number']}, {'long_name': 'Alte Steinhauserstrasse', 'short_name': 'Alte Steinhauserstrasse', 'types': ['route']}, {'long_name': 'Cham', 'short_name': 'Cham', 'types': ['locality', 'political']}, {'long_name': 'Zug', 'short_name': 'Zug', 'types': ['administrative_area_level_2', 'political']}, {'long_name': 'Zug', 'short_name': 'ZG', 'types': ['administrative_area_level_1', 'political']}, {'long_name': 'Switzerland', 'short_name': 'CH', 'types': ['country', 'political']}, {'long_name': '6330', 'short_name': '6330', 'types': ['postal_code']}], 'formatted_address': 'Alte Steinhauserstrasse 1, 6330 Cham, Switzerland', 'geometry': {'location': {'lat': 47.1877443, 'lng': 8.4737621}, 'location_type': 'ROOFTOP', 'viewport': {'northeast': {'lat': 47.1890932802915, 'lng': 8.475111080291502}, 'southwest': {'lat': 47.1863953197085, 'lng': 8.472413119708499}}}, 'partial_match': True, 'place_id': 'ChIJ3W_Fc5AAkEcRiCQJ97oGhXI', 'plus_code': {'compound_code': '5FQF+3G Cham, Switzerland', 'global_code': '8FVC5FQF+3G'}, 'types': ['street_address']}], 'status': 'OK'}","Alte Steinhauserstrasse 1, 6330 Cham"
5,"{'results': [{'address_components': [{'long_name': '5', 'short_name': '5', 'types': ['street_number']}, {'long_name': 'Oberneuhofstrasse', 'short_name': 'Oberneuhofstrasse', 'types': ['route']}, {'long_name': 'Baar', 'short_name': 'Baar', 'types': ['locality', 'political']}, {'long_name': 'Zug', 'short_name': 'Zug', 'types': ['administrative_area_level_2', 'political']}, {'long_name': 'Zug', 'short_name': 'ZG', 'types': ['administrative_area_level_1', 'political']}, {'long_name': 'Switzerland', 'short_name': 'CH', 'types': ['country', 'political']}, {'long_name': '6340', 'short_name': '6340', 'types': ['postal_code']}], 'formatted_address': 'Oberneuhofstrasse 5, 6340 Baar, Switzerland', 'geometry': {'bounds': {'northeast': {'lat': 47.1893902, 'lng': 8.5165019}, 'southwest': {'lat': 47.1890003, 'lng': 8.5163011}}, 'location': {'lat': 47.1890701, 'lng': 8.5164049}, 'location_type': 'ROOFTOP', 'viewport': {'northeast': {'lat': 47.19054423029149, 'lng': 8.517750480291502}, 'southwest': {'lat': 47.18784626970849, 'lng': 8.515052519708497}}}, 'partial_match': True, 'place_id': 'ChIJ3R8r2kCqmkcRpk-vlz1FHPU', 'types': ['premise']}], 'status': 'OK'}","Oberneuhofstrasse 5, 6340 Baar"
6,"{'results': [{'address_components': [{'long_name': '14', 'short_name': '14', 'types': ['street_number']}, {'long_name': 'Rathausstrasse', 'short_name': 'Rathausstrasse', 'types': ['route']}, {'long_name': 'Baar', 'short_name': 'Baar', 'types': ['locality', 'political']}, {'long_name': 'Zug', 'short_name': 'Zug', 'types': ['administrative_area_level_2', 'political']}, {'long_name': 'Zug', 'short_name': 'ZG', 'types': ['administrative_area_level_1', 'political']}, {'long_name': 'Switzerland', 'short_name': 'CH', 'types': ['country', 'political']}, {'long_name': '6340', 'short_name': '6340', 'types': ['postal_code']}], 'formatted_address': 'Rathausstrasse 14, 6340 Baar, Switzerland', 'geometry': {'bounds': {'northeast': {'lat': 47.1954628, 'lng': 8.5270174}, 'southwest': {'lat': 47.1947974, 'lng': 8.526231}}, 'location': {'lat': 47.1951306, 'lng': 8.5267313}, 'location_type': 'ROOFTOP', 'viewport': {'northeast': {'lat': 47.1964790802915, 'lng': 8.527973180291502}, 'southwest': {'lat': 47.1937811197085, 'lng': 8.525275219708497}}}, 'partial_match': True, 'place_id': 'ChIJi1TuSTeqmkcRsPQrF1Hlg54', 'types': ['premise']}], 'status': 'OK'}","Rathausstrasse 14, 6340 Baar"
7,"{'results': [{'address_components': [{'long_name': 'Bahnhofplatz', 'short_name': 'Bahnhofplatz', 'types': ['premise']}, {'long_name': 'Zug', 'short_name': 'Zug', 'types': ['locality', 'political']}, {'long_name': 'Zug', 'short_name': 'Zug', 'types': ['administrative_area_level_2', 'political']}, {'long_name': 'Zug', 'short_name': 'ZG', 'types': ['administrative_area_level_1', 'political']}, {'long_name': 'Switzerland', 'short_name': 'CH', 'types': ['country', 'political']}, {'long_name': '6300', 'short_name': '6300', 'types': ['postal_code']}], 'formatted_address': 'Bahnhofplatz, 6300 Zug, Switzerland', 'geometry': {'location': {'lat': 47.1736681, 'lng': 8.5153356}, 'location_type': 'ROOFTOP', 'viewport': {'northeast': {'lat': 47.1750170802915, 'lng': 8.516684580291502}, 'southwest': {'lat': 47.1723191197085, 'lng': 8.513986619708497}}}, 'partial_match': True, 'place_id': 'ChIJDS_0-ViqmkcRZ1w7T65GYjI', 'plus_code': {'compound_code': '5GF8+F4 Zug, Switzerland', 'global_code': '8FVC5GF8+F4'}, 'types': ['premise']}], 'status': 'OK'}","Bahnhofplatz , 6300 Zug"
8,"{'results': [{'address_components': [{'long_name': 'Schochenmühlestrasse & 4', 'short_name': 'Schochenmühlestrasse & 4', 'types': ['intersection']}, {'long_name': 'Baar', 'short_name': 'Baar', 'types': ['locality', 'political']}, {'long_name': 'Zug', 'short_name': 'Zug', 'types': ['administrative_area_level_2', 'political']}, {'long_name': 'Zug', 'short_name': 'ZG', 'types': ['administrative_area_level_1', 'political']}, {'long_name': 'Switzerland', 'short_name': 'CH', 'types': ['country', 'political']}, {'long_name': '6340', 'short_name': '6340', 'types': ['postal_code']}], 'formatted_address': 'Schochenmühlestrasse & 4, 6340 Baar, Switzerland', 'geometry': {'location': {'lat': 47.1911305, 'lng': 8.512509}, 'location_type': 'GEOMETRIC_CENTER', 'viewport': {'northeast': {'lat': 47.1924794802915, 'lng': 8.513857980291501}, 'southwest': {'lat': 47.1897815197085, 'lng': 8.511160019708496}}}, 'partial_match': True, 'place_id': 'EjFTY2hvY2hlbm3DvGhsZXN0cmFzc2UgJiA0LCA2MzQwIEJhYXIsIFN3aXR6ZXJsYW5kImYiZAoUChIJ-5n6BECqmkcRJ4A1P0iLykQSFAoSCfuZ-gRAqppHESeANT9Ii8pEGhQKEgll_rCTbKqaRxF-R-qO7G__eRoUChIJ4zE6Fa8FkEcR8I68-7QZjO4iCg2JyyAcFeLnEgU', 'types': ['intersection']}], 'status': 'OK'}","Schochenmühlestrasse 4, 6340 Baar"
9,"{'results': [{'address_components': [{'long_name': '1', 'short_name': '1', 'types': ['street_number']}, {'long_name': 'Haldenstrasse', 'short_name': 'Haldenstrasse', 'types': ['route']}, {'long_name': 'Baar', 'short_name': 'Baar', 'types': ['locality', 'political']}, {'long_name': 'Zug', 'short_name': 'Zug', 'types': ['administrative_area_level_2', 'political']}, {'long_name': 'Zug', 'short_name': 'ZG', 'types': ['administrative_area_level_1', 'political']}, {'long_name': 'Switzerland', 'short_name': 'CH', 'types': ['country', 'political']}, {'long_name': '6340', 'short_name': '6340', 'types': ['postal_code']}], 'formatted_address': 'Haldenstrasse 1, 6340 Baar, Switzerland', 'geometry': {'location': {'lat': 47.1960905, 'lng': 8.5369929}, 'location_type': 'ROOFTOP', 'viewport': {'northeast': {'lat': 47.19743948029149, 'lng': 8.538341880291503}, 'southwest': {'lat': 47.19474151970849, 'lng': 8.535643919708498}}}, 'partial_match': True, 'place_id': 'ChIJn6CSRTOqmkcR9uSZvyhOgV0', 'plus_code': {'compound_code': '5GWP+CQ Baar, Switzerland', 'global_code': '8FVC5GWP+CQ'}, 'types': ['street_address']}], 'status': 'OK'}","Haldenstrasse 1, 6340 Baar"
10,"{'results': [{'address_components': [{'long_name': '9', 'short_name': '9', 'types': ['street_number']}, {'long_name': 'Bahnhofstrasse', 'short_name': 'Bahnhofstrasse', 'types': ['route']}, {'long_name': 'Baar', 'short_name': 'Baar', 'types': ['locality', 'political']}, {'long_name': 'Zug', 'short_name': 'Zug', 'types': ['administrative_area_level_2', 'political']}, {'long_name': 'Zug', 'short_name': 'ZG', 'types': ['administrative_area_level_1', 'political']}, {'long_name': 'Switzerland', 'short_name': 'CH', 'types': ['country', 'political']}, {'long_name': '6340', 'short_name': '6340', 'types': ['postal_code']}], 'formatted_address': 'Bahnhofstrasse 9, 6340 Baar, Switzerland', 'geometry': {'bounds': {'northeast': {'lat': 47.1955417, 'lng': 8.524664}, 'southwest': {'lat': 47.1951695, 'lng': 8.524062299999999}}, 'location': {'lat': 47.1953853, 'lng': 8.524350499999999}, 'location_type': 'ROOFTOP', 'viewport': {'northeast': {'lat': 47.1967045802915, 'lng': 8.525712130291502}, 'southwest': {'lat': 47.1940066197085, 'lng': 8.523014169708498}}}, 'partial_match': True, 'place_id': 'ChIJeYIz9zmqmkcRo7hZgFCgG6M', 'types': ['premise']}], 'status': 'OK'}","Bahnhofstrasse 9, 6340 Baar"
11,"{'results': [{'address_components': [{'long_name': '3', 'short_name': '3', 'types': ['street_number']}, {'long_name': 'Industriestrasse', 'short_name': 'Industriestrasse', 'types': ['route']}, {'long_name': 'Neuheim', 'short_name': 'Neuheim', 'types': ['locality', 'political']}, {'long_name': 'Zug', 'short_name': 'Zug', 'types': ['administrative_area_level_2', 'political']}, {'long_name': 'Zug', 'short_name': 'ZG', 'types': ['administrative_area_level_1', 'political']}, {'long_name': 'Switzerland', 'short_name': 'CH', 'types': ['country', 'political']}, {'long_name': '6345', 'short_name': '6345', 'types': ['postal_code']}], 'formatted_address': 'Industriestrasse 3, 6345 Neuheim, Switzerland', 'geometry': {'bounds': {'northeast': {'lat': 47.2026562, 'lng': 8.576790599999999}, 'southwest': {'lat': 47.2022129, 'lng': 8.576209}}, 'location': {'lat': 47.2024547, 'lng': 8.576511199999999}, 'location_type': 'ROOFTOP', 'viewport': {'northeast': {'lat': 47.2037835302915, 'lng': 8.577848780291502}, 'southwest': {'lat': 47.2010855697085, 'lng': 8.575150819708497}}}, 'partial_match': True, 'place_id': 'ChIJS3S5sPyrmkcRFJPTUFL8ymc', 'types': ['premise']}], 'status': 'OK'}","Industriestrasse 3, 6345 Neuheim"
12,"{'results': [{'address_components': [{'long_name': '16', 'short_name': '16', 'types': ['street_number']}, {'long_name': 'Dammstrasse', 'short_name': 'Dammstrasse', 'types': ['route']}, {'long_name': 'Zug', 'short_name': 'Zug', 'types': ['locality', 'political']}, {'long_name': 'Zug', 'short_name': 'Zug', 'types': ['administrative_area_level_2', 'political']}, {'long_name': 'Zug', 'short_name': 'ZG', 'types': ['administrative_area_level_1', 'political']}, {'long_name': 'Switzerland', 'short_name': 'CH', 'types': ['country', 'political']}, {'long_name': '6300', 'short_name': '6300', 'types': ['postal_code']}], 'formatted_address': 'Dammstrasse 16, 6300 Zug, Switzerland', 'geometry': {'bounds': {'northeast': {'lat': 47.175898, 'lng': 8.5150781}, 'southwest': {'lat': 47.1755381, 'lng': 8.5145965}}, 'location': {'lat': 47.1757614, 'lng': 8.5147694}, 'location_type': 'ROOFTOP', 'viewport': {'northeast': {'lat': 47.1770670302915, 'lng': 8.516186280291501}, 'southwest': {'lat': 47.1743690697085, 'lng': 8.513488319708497}}}, 'partial_match': True, 'place_id': 'ChIJSdMMalmqmkcRbbgLWT6oYag', 'types': ['premise']}], 'status': 'OK'}","Dammstrasse 16, 6300 Zug"
13,"{'results': [{'address_components': [{'long_name': '3', 'short_name': '3', 'types': ['street_number']}, {'long_name': 'Oberneuhofstrasse', 'short_name': 'Oberneuhofstrasse', 'types': ['route']}, {'long_name': 'Baar', 'short_name': 'Baar', 'types': ['locality', 'political']}, {'long_name': 'Zug', 'short_name': 'Zug', 'types': ['administrative_area_level_2', 'political']}, {'long_name': 'Zug', 'short_name': 'ZG', 'types': ['administrative_area_level_1', 'political']}, {'long_name': 'Switzerland', 'short_name': 'CH', 'types': ['country', 'political']}, {'long_name': '6340', 'short_name': '6340', 'types': ['postal_code']}], 'formatted_address': 'Oberneuhofstrasse 3, 6340 Baar, Switzerland', 'geometry': {'location': {'lat': 47.1888224, 'lng': 8.5156866}, 'location_type': 'ROOFTOP', 'viewport': {'northeast': {'lat': 47.1901713802915, 'lng': 8.517035580291504}, 'southwest': {'lat': 47.1874734197085, 'lng': 8.514337619708499}}}, 'partial_match': True, 'place_id': 'ChIJHbzEH0GqmkcR3mm_M06O6mY', 'plus_code': {'compound_code': '5GQ8+G7 Baar, Switzerland', 'global_code': '8FVC5GQ8+G7'}, 'types': ['street_address']}], 'status': 'OK'}","Oberneuhofstrasse 3, 6340 Baar"
14,"{'results': [{'address_components': [{'long_name': '1', 'short_name': '1', 'types': ['street_number']}, {'long_name': 'Blegistrasse', 'short_name': 'Blegistrasse', 'types': ['route']}, {'long_name': 'Rotkreuz ZG', 'short_name': 'Rotkreuz ZG', 'types': ['locality', 'political']}, {'long_name': 'Zug', 'short_name': 'Zug', 'types': ['administrative_area_level_2', 'political']}, {'long_name': 'Zug', 'short_name': 'ZG', 'types': ['administrative_area_level_1', 'political']}, {'long_name': 'Switzerland', 'short_name': 'CH', 'types': ['country', 'political']}, {'long_name': '6343', 'short_name': '6343', 'types': ['postal_code']}], 'formatted_address': 'Blegistrasse 1, 6343 Rotkreuz ZG, Switzerland', 'geometry': {'bounds': {'northeast': {'lat': 47.1484252, 'lng': 8.436584}, 'southwest': {'lat': 47.1477247, 'lng': 8.4358253}}, 'location': {'lat': 47.1481083, 'lng': 8.4362768}, 'location_type': 'ROOFTOP', 'viewport': {'northeast': {'lat': 47.1494239302915, 'lng': 8.437553630291502}, 'southwest': {'lat': 47.14672596970851, 'lng': 8.434855669708497}}}, 'partial_match': True, 'place_id': 'ChIJvxHP1y8AkEcRJsU3mSkDIYI', 'types': ['premise']}], 'status': 'OK'}","Blegistrasse 1, 6343 Rotkreuz"
15,"{'results': [{'address_components': [{'long_name': '7', 'short_name': '7', 'types': ['street_number']}, {'long_name': 'Riedstrasse', 'short_name': 'Riedstrasse', 'types': ['route']}, {'long_name': 'Cham', 'short_name': 'Cham', 'types': ['locality', 'political']}, {'long_name': 'Zug', 'short_name': 'Zug', 'types': ['administrative_area_level_2', 'political']}, {'long_name': 'Zug', 'short_name': 'ZG', 'types': ['administrative_area_level_1', 'political']}, {'long_name': 'Switzerland', 'short_name': 'CH', 'types': ['country', 'political']}, {'long_name': '6330', 'short_name': '6330', 'types': ['postal_code']}], 'formatted_address': 'Riedstrasse 7, 6330 Cham, Switzerland', 'geometry': {'bounds': {'northeast': {'lat': 47.18970179999999, 'lng': 8.4771386}, 'southwest': {'lat': 47.1889718, 'lng': 8.4766424}}, 'location': {'lat': 47.1892911, 'lng': 8.4768516}, 'location_type': 'ROOFTOP', 'viewport': {'northeast': {'lat': 47.1906857802915, 'lng': 8.478239480291503}, 'southwest': {'lat': 47.1879878197085, 'lng': 8.475541519708498}}}, 'partial_match': True, 'place_id': 'ChIJCVikIJoAkEcR_F_BS13AN7k', 'types': ['premise']}], 'status': 'OK'}","Riedstrasse 7, 6330 Cham"
16,"{'results': [{'address_components': [{'long_name': '80A', 'short_name': '80A', 'types': ['street_number']}, {'long_name': 'Bösch', 'short_name': 'Bösch', 'types': ['route']}, {'long_name': 'Hünenberg', 'short_name': 'Hünenberg', 'types': ['locality', 'political']}, {'long_name': 'Zug', 'short_name': 'Zug', 'types': ['administrative_area_level_2', 'political']}, {'long_name': 'Zug', 'short_name': 'ZG', 'types': ['administrative_area_level_1', 'political']}, {'long_name': 'Switzerland', 'short_name': 'CH', 'types': ['country', 'political']}, {'long_name': '6331', 'short_name': '6331', 'types': ['postal_code']}], 'formatted_address': 'Bösch 80A, 6331 Hünenberg, Switzerland', 'geometry': {'location': {'lat': 47.1613561, 'lng': 8.4347469}, 'location_type': 'ROOFTOP', 'viewport': {'northeast': {'lat': 47.1627050802915, 'lng': 8.436095880291504}, 'southwest': {'lat': 47.1600071197085, 'lng': 8.433397919708499}}}, 'partial_match': True, 'place_id': 'ChIJxzUOwEsAkEcR5WDT0IItgOA', 'plus_code': {'compound_code': '5C6M+GV Hünenberg, Switzerland', 'global_code': '8FVC5C6M+GV'}, 'types': ['street_address']}], 'status': 'OK'}","Bösch 80A, 6331 Hünenberg"
17,"{'results': [{'address_components': [{'long_name': '6', 'short_name': '6', 'types': ['street_number']}, {'long_name': 'Oberneuhofstrasse', 'short_name': 'Oberneuhofstrasse', 'types': ['route']}, {'long_name': 'Baar', 'short_name': 'Baar', 'types': ['locality', 'political']}, {'long_name': 'Zug', 'short_name': 'Zug', 'types': ['administrative_area_level_2', 'political']}, {'long_name': 'Zug', 'short_name': 'ZG', 'types': ['administrative_area_level_1', 'political']}, {'long_name': 'Switzerland', 'short_name': 'CH', 'types': ['country', 'political']}, {'long_name': '6340', 'short_name': '6340', 'types': ['postal_code']}], 'formatted_address': 'Oberneuhofstrasse 6, 6340 Baar, Switzerland', 'geometry': {'location': {'lat': 47.1882543, 'lng': 8.515461799999999}, 'location_type': 'ROOFTOP', 'viewport': {'northeast': {'lat': 47.18960328029149, 'lng': 8.516810780291502}, 'southwest': {'lat': 47.18690531970849, 'lng': 8.514112819708497}}}, 'partial_match': True, 'place_id': 'ChIJvx_AF0GqmkcRYjgFEKd4wO0', 'plus_code': {'compound_code': '5GQ8+85 Baar, Switzerland', 'global_code': '8FVC5GQ8+85'}, 'types': ['street_address']}], 'status': 'OK'}","Oberneuhofstrasse 6, 6340 Baar"
18,"{'results': [{'address_components': [{'long_name': '6', 'short_name': '6', 'types': ['street_number']}, {'long_name': 'Lättichstrasse', 'short_name': 'Lättichstrasse', 'types': ['route']}, {'long_name': 'Baar', 'short_name': 'Baar', 'types': ['locality', 'political']}, {'long_name': 'Zug', 'short_name': 'Zug', 'types': ['administrative_area_level_2', 'political']}, {'long_name': 'Zug', 'short_name': 'ZG', 'types': ['administrative_area_level_1', 'political']}, {'long_name': 'Switzerland', 'short_name': 'CH', 'types': ['country', 'political']}, {'long_name': '6340', 'short_name': '6340', 'types': ['postal_code']}], 'formatted_address': 'Lättichstrasse 6, 6340 Baar, Switzerland', 'geometry': {'bounds': {'northeast': {'lat': 47.2000785, 'lng': 8.5396549}, 'southwest': {'lat': 47.1996924, 'lng': 8.538417100000002}}, 'location': {'lat': 47.1998574, 'lng': 8.538978199999999}, 'location_type': 'ROOFTOP', 'viewport': {'northeast': {'lat': 47.20123443029149, 'lng': 8.540384980291504}, 'southwest': {'lat': 47.1985364697085, 'lng': 8.5376870197085}}}, 'partial_match': True, 'place_id': 'ChIJS38YrNKrmkcRJGZufm_cptU', 'types': ['premise']}], 'status': 'OK'}","Lättichstrasse 6, 6340 Baar"
19,"{'results': [{'address_components': [{'long_name': '6', 'short_name': '6', 'types': ['street_number']}, {'long_name': 'Ruessenstrasse', 'short_name': 'Ruessenstrasse', 'types': ['route']}, {'long_name': 'Baar', 'short_name': 'Baar', 'types': ['locality', 'political']}, {'long_name': 'Zug', 'short_name': 'Zug', 'types': ['administrative_area_level_2', 'political']}, {'long_name': 'Zug', 'short_name': 'ZG', 'types': ['administrative_area_level_1', 'political']}, {'long_name': 'Switzerland', 'short_name': 'CH', 'types': ['country', 'political']}, {'long_name': '6340', 'short_name': '6340', 'types': ['postal_code']}], 'formatted_address': 'Ruessenstrasse 6, 6340 Baar, Switzerland', 'geometry': {'bounds': {'northeast': {'lat': 47.212226, 'lng': 8.5608288}, 'southwest': {'lat': 47.2115674, 'lng': 8.559964599999999}}, 'location': {'lat': 47.2119062, 'lng': 8.560584}, 'location_type': 'ROOFTOP', 'viewport': {'northeast': {'lat': 47.2132456802915, 'lng': 8.561745680291503}, 'southwest': {'lat': 47.2105477197085, 'lng': 8.559047719708499}}}, 'partial_match': True, 'place_id': 'ChIJYztvWGGpmkcRiLjjdd86ucg', 'types': ['premise']}], 'status': 'OK'}","Ruessenstrasse 6, 6340 Baar"
20,"{'results': [{'address_components': [{'long_name': '7', 'short_name': '7', 'types': ['street_number']}, {'long_name': 'Lettenstrasse', 'short_name': 'Lettenstrasse', 'types': ['route']}, {'long_name': 'Rotkreuz ZG', 'short_name': 'Rotkreuz ZG', 'types': ['locality', 'political']}, {'long_name': 'Zug', 'short_name': 'Zug', 'types': ['administrative_area_level_2', 'political']}, {'long_name': 'Zug', 'short_name': 'ZG', 'types': ['administrative_area_level_1', 'political']}, {'long_name': 'Switzerland', 'short_name': 'CH', 'types': ['country', 'political']}, {'long_name': '6343', 'short_name': '6343', 'types': ['postal_code']}], 'formatted_address': 'Lettenstrasse 7, 6343 Rotkreuz ZG, Switzerland', 'geometry': {'location': {'lat': 47.1467671, 'lng': 8.4318194}, 'location_type': 'ROOFTOP', 'viewport': {'northeast': {'lat': 47.1481160802915, 'lng': 8.433168380291503}, 'southwest': {'lat': 47.1454181197085, 'lng': 8.430470419708499}}}, 'partial_match': True, 'place_id': 'ChIJ2cUg2i0AkEcRT8PK9e5Znrg', 'plus_code': {'compound_code': '4CWJ+PP Risch-Rotkreuz, Switzerland', 'global_code': '8FVC4CWJ+PP'}, 'types': ['street_address']}], 'status': 'OK'}","Lettenstrasse 7, 6343 Rotkreuz"
21,"{'results': [{'address_components': [{'long_name': '22A', 'short_name': '22A', 'types': ['street_number']}, {'long_name': 'Grundstrasse', 'short_name': 'Grundstrasse', 'types': ['route']}, {'long_name': 'Rotkreuz ZG', 'short_name': 'Rotkreuz ZG', 'types': ['locality', 'political']}, {'long_name': 'Zug', 'short_name': 'Zug', 'types': ['administrative_area_level_2', 'political']}, {'long_name': 'Zug', 'short_name': 'ZG', 'types': ['administrative_area_level_1', 'political']}, {'long_name': 'Switzerland', 'short_name': 'CH', 'types': ['country', 'political']}, {'long_name': '6343', 'short_name': '6343', 'types': ['postal_code']}], 'formatted_address': 'Grundstrasse 22A, 6343 Rotkreuz ZG, Switzerland', 'geometry': {'location': {'lat': 47.1465021, 'lng': 8.430205899999999}, 'location_type': 'ROOFTOP', 'viewport': {'northeast': {'lat': 47.1478510802915, 'lng': 8.431554880291502}, 'southwest': {'lat': 47.1451531197085, 'lng': 8.428856919708497}}}, 'partial_match': True, 'place_id': 'ChIJNd9WsS0AkEcR8VJq04rrBqk', 'plus_code': {'compound_code': '4CWJ+J3 Risch-Rotkreuz, Switzerland', 'global_code': '8FVC4CWJ+J3'}, 'types': ['street_address']}], 'status': 'OK'}","Grundstrasse 22A, 6343 Rotkreuz"
22,"{'results': [{'address_components': [{'long_name': '5', 'short_name': '5', 'types': ['street_number']}, {'long_name': 'Blegistrasse', 'short_name': 'Blegistrasse', 'types': ['route']}, {'long_name': 'Baar', 'short_name': 'Baar', 'types': ['locality', 'political']}, {'long_name': 'Zug', 'short_name': 'Zug', 'types': ['administrative_area_level_2', 'political']}, {'long_name': 'Zug', 'short_name': 'ZG', 'types': ['administrative_area_level_1', 'political']}, {'long_name': 'Switzerland', 'short_name': 'CH', 'types': ['country', 'political']}, {'long_name': '6340', 'short_name': '6340', 'types': ['postal_code']}], 'formatted_address': 'Blegistrasse 5, 6340 Baar, Switzerland', 'geometry': {'location': {'lat': 47.2159772, 'lng': 8.5714568}, 'location_type': 'ROOFTOP', 'viewport': {'northeast': {'lat': 47.2173261802915, 'lng': 8.572805780291503}, 'southwest': {'lat': 47.2146282197085, 'lng': 8.570107819708499}}}, 'partial_match': True, 'place_id': 'ChIJ3Uubz1ypmkcRi8g1tTAV3Z0', 'plus_code': {'compound_code': '6H8C+9H Baar, Switzerland', 'global_code': '8FVC6H8C+9H'}, 'types': ['street_address']}], 'status': 'OK'}","Blegistrasse 5, 6340 Baar"
23,"{'results': [{'address_components': [{'long_name': '42A', 'short_name': '42A', 'types': ['street_number']}, {'long_name': 'Chamerstrasse', 'short_name': 'Chamerstrasse', 'types': ['route']}, {'long_name': 'Hünenberg', 'short_name': 'Hünenberg', 'types': ['locality', 'political']}, {'long_name': 'Zug', 'short_name': 'Zug', 'types': ['administrative_area_level_2', 'political']}, {'long_name': 'Zug', 'short_name': 'ZG', 'types': ['administrative_area_level_1', 'political']}, {'long_name': 'Switzerland', 'short_name': 'CH', 'types': ['country', 'political']}, {'long_name': '6331', 'short_name': '6331', 'types': ['postal_code']}], 'formatted_address': 'Chamerstrasse 42A, 6331 Hünenberg, Switzerland', 'geometry': {'location': {'lat': 47.178458, 'lng': 8.430798099999999}, 'location_type': 'ROOFTOP', 'viewport': {'northeast': {'lat': 47.1798069802915, 'lng': 8.4321470802915}, 'southwest': {'lat': 47.1771090197085, 'lng': 8.429449119708496}}}, 'partial_match': True, 'place_id': 'ChIJ7aq9owABkEcR-jbjxP_oZ8M', 'plus_code': {'compound_code': '5CHJ+98 Hünenberg, Switzerland', 'global_code': '8FVC5CHJ+98'}, 'types': ['street_address']}], 'status': 'OK'}","Chamerstrasse 42A, 6331 Hünenberg"
24,"{'results': [{'address_components': [{'long_name': '11B', 'short_name': '11B', 'types': ['street_number']}, {'long_name': 'Blegistrasse', 'short_name': 'Blegistrasse', 'types': ['route']}, {'long_name': 'Baar', 'short_name': 'Baar', 'types': ['locality', 'political']}, {'long_name': 'Zug', 'short_name': 'Zug', 'types': ['administrative_area_level_2', 'political']}, {'long_name': 'Zug', 'short_name': 'ZG', 'types': ['administrative_area_level_1', 'political']}, {'long_name': 'Switzerland', 'short_name': 'CH', 'types': ['country', 'political']}, {'long_name': '6340', 'short_name': '6340', 'types': ['postal_code']}], 'formatted_address': 'Blegistrasse 11B, 6340 Baar, Switzerland', 'geometry': {'location': {'lat': 47.21575379999999, 'lng': 8.5703487}, 'location_type': 'ROOFTOP', 'viewport': {'northeast': {'lat': 47.2171027802915, 'lng': 8.571697680291503}, 'southwest': {'lat': 47.2144048197085, 'lng': 8.568999719708499}}}, 'partial_match': True, 'place_id': 'ChIJPeN8IV2pmkcRkGy-bxQ8fCM', 'plus_code': {'compound_code': '6H8C+84 Baar, Switzerland', 'global_code': '8FVC6H8C+84'}, 'types': ['street_address']}], 'status': 'OK'}","Blegistrasse 11B, 6340 Baar"
25,"{'results': [{'address_components': [{'long_name': '1', 'short_name': '1', 'types': ['street_number']}, {'long_name': 'Seestrasse', 'short_name': 'Seestrasse', 'types': ['route']}, {'long_name': 'Cham', 'short_name': 'Cham', 'types': ['locality', 'political']}, {'long_name': 'Zug', 'short_name': 'Zug', 'types': ['administrative_area_level_2', 'political']}, {'long_name': 'Zug', 'short_name': 'ZG', 'types': ['administrative_area_level_1', 'political']}, {'long_name': 'Switzerland', 'short_name': 'CH', 'types': ['country', 'political']}, {'long_name': '6330', 'short_name': '6330', 'types': ['postal_code']}], 'formatted_address': 'Seestrasse 1, 6330 Cham, Switzerland', 'geometry': {'location': {'lat': 47.1805597, 'lng': 8.460221299999999}, 'location_type': 'ROOFTOP', 'viewport': {'northeast': {'lat': 47.1819086802915, 'lng': 8.461570280291502}, 'southwest': {'lat': 47.1792107197085, 'lng': 8.458872319708497}}}, 'partial_match': True, 'place_id': 'ChIJJ5Roq_QAkEcRNlGJns8WVoM', 'plus_code': {'compound_code': '5FJ6+63 Cham, Switzerland', 'global_code': '8FVC5FJ6+63'}, 'types': ['street_address']}], 'status': 'OK'}","Seestrasse 1, 6330 Cham"
26,"{'results': [{'address_components': [{'long_name': '6', 'short_name': '6', 'types': ['street_number']}, {'long_name': 'Gewerbestrasse', 'short_name': 'Gewerbestrasse', 'types': ['route']}, {'long_name': 'Cham', 'short_name': 'Cham', 'types': ['locality', 'political']}, {'long_name': 'Zug', 'short_name': 'Zug', 'types': ['administrative_area_level_2', 'political']}, {'long_name': 'Zug', 'short_name': 'ZG', 'types': ['administrative_area_level_1', 'political']}, {'long_name': 'Switzerland', 'short_name': 'CH', 'types': ['country', 'political']}, {'long_name': '6330', 'short_name': '6330', 'types': ['postal_code']}], 'formatted_address': 'Gewerbestrasse 6, 6330 Cham, Switzerland', 'geometry': {'bounds': {'northeast': {'lat': 47.1890625, 'lng': 8.4736674}, 'southwest': {'lat': 47.1887381, 'lng': 8.472938899999999}}, 'location': {'lat': 47.1889511, 'lng': 8.4731626}, 'location_type': 'ROOFTOP', 'viewport': {'northeast': {'lat': 47.1902492802915, 'lng': 8.474652130291501}, 'southwest': {'lat': 47.1875513197085, 'lng': 8.471954169708496}}}, 'partial_match': True, 'place_id': 'ChIJn1ivx5AAkEcR9LL1vW7IjYs', 'types': ['premise']}], 'status': 'OK'}","Gewerbestrasse 6, 6330 Cham"
27,"{'results': [{'address_components': [{'long_name': '1', 'short_name': '1', 'types': ['street_number']}, {'long_name': 'Riedstrasse', 'short_name': 'Riedstrasse', 'types': ['route']}, {'long_name': 'Rotkreuz ZG', 'short_name': 'Rotkreuz ZG', 'types': ['locality', 'political']}, {'long_name': 'Zug', 'short_name': 'Zug', 'types': ['administrative_area_level_2', 'political']}, {'long_name': 'Zug', 'short_name': 'ZG', 'types': ['administrative_area_level_1', 'political']}, {'long_name': 'Switzerland', 'short_name': 'CH', 'types': ['country', 'political']}, {'long_name': '6343', 'short_name': '6343', 'types': ['postal_code']}], 'formatted_address': 'Riedstrasse 1, 6343 Rotkreuz ZG, Switzerland', 'geometry': {'bounds': {'northeast': {'lat': 47.1474555, 'lng': 8.429527499999999}, 'southwest': {'lat': 47.1466697, 'lng': 8.4282281}}, 'location': {'lat': 47.14709819999999, 'lng': 8.429193399999999}, 'location_type': 'ROOFTOP', 'viewport': {'northeast': {'lat': 47.1484115802915, 'lng': 8.430226780291502}, 'southwest': {'lat': 47.1457136197085, 'lng': 8.427528819708497}}}, 'partial_match': True, 'place_id': 'ChIJIVU3CS0AkEcR_FQFg9txjAw', 'types': ['premise']}], 'status': 'OK'}","Riedstrasse 1, 6343 Rotkreuz"
28,"{'results': [{'address_components': [{'long_name': '18A', 'short_name': '18A', 'types': ['street_number']}, {'long_name': 'Ibelweg', 'short_name': 'Ibelweg', 'types': ['route']}, {'long_name': 'Zug', 'short_name': 'Zug', 'types': ['locality', 'political']}, {'long_name': 'Zug', 'short_name': 'Zug', 'types': ['administrative_area_level_2', 'political']}, {'long_name': 'Zug', 'short_name': 'ZG', 'types': ['administrative_area_level_1', 'political']}, {'long_name': 'Switzerland', 'short_name': 'CH', 'types': ['country', 'political']}, {'long_name': '6300', 'short_name': '6300', 'types': ['postal_code']}], 'formatted_address': 'Ibelweg 18A, 6300 Zug, Switzerland', 'geometry': {'location': {'lat': 47.1807393, 'lng': 8.524845599999999}, 'location_type': 'ROOFTOP', 'viewport': {'northeast': {'lat': 47.1820882802915, 'lng': 8.5261945802915}, 'southwest': {'lat': 47.1793903197085, 'lng': 8.523496619708496}}}, 'partial_match': True, 'place_id': 'ChIJYUP82FGqmkcRi1J8ykU3hyc', 'plus_code': {'compound_code': '5GJF+7W Baar, Switzerland', 'global_code': '8FVC5GJF+7W'}, 'types': ['street_address']}], 'status': 'OK'}","Ibelweg 18A, 6300 Zug"
29,"{'results': [{'address_components': [{'long_name': '1', 'short_name': '1', 'types': ['street_number']}, {'long_name': 'Riedstrasse', 'short_name': 'Riedstrasse', 'types': ['route']}, {'long_name': 'Cham', 'short_name': 'Cham', 'types': ['locality', 'political']}, {'long_name': 'Zug', 'short_name': 'Zug', 'types': ['administrative_area_level_2', 'political']}, {'long_name': 'Zug', 'short_name': 'ZG', 'types': ['administrative_area_level_1', 'political']}, {'long_name': 'Switzerland', 'short_name': 'CH', 'types': ['country', 'political']}, {'long_name': '6330', 'short_name': '6330', 'types': ['postal_code']}], 'formatted_address': 'Riedstrasse 1, 6330 Cham, Switzerland', 'geometry': {'bounds': {'northeast': {'lat': 47.1895323, 'lng': 8.4757008}, 'southwest': {'lat': 47.18910959999999, 'lng': 8.4750026}}, 'location': {'lat': 47.1893327, 'lng': 8.475259099999999}, 'location_type': 'ROOFTOP', 'viewport': {'northeast': {'lat': 47.1906699302915, 'lng': 8.476700680291502}, 'southwest': {'lat': 47.1879719697085, 'lng': 8.474002719708498}}}, 'partial_match': True, 'place_id': 'ChIJW_9BAZoAkEcR9yIX-qvd3os', 'types': ['premise']}], 'status': 'OK'}","Riedstrasse 1, 6330 Cham"
30,"{'results': [{'address_components': [{'long_name': '4', 'short_name': '4', 'types': ['street_number']}, {'long_name': 'Klostermatt', 'short_name': 'Klostermatt', 'types': ['route']}, {'long_name': 'Cham', 'short_name': 'Cham', 'types': ['locality', 'political']}, {'long_name': 'Zug', 'short_name': 'Zug', 'types': ['administrative_area_level_2', 'political']}, {'long_name': 'Zug', 'short_name': 'ZG', 'types': ['administrative_area_level_1', 'political']}, {'long_name': 'Switzerland', 'short_name': 'CH', 'types': ['country', 'political']}, {'long_name': '6330', 'short_name': '6330', 'types': ['postal_code']}], 'formatted_address': 'Klostermatt 4, 6330 Cham, Switzerland', 'geometry': {'location': {'lat': 47.1805577, 'lng': 8.4489552}, 'location_type': 'ROOFTOP', 'viewport': {'northeast': {'lat': 47.1819066802915, 'lng': 8.450304180291504}, 'southwest': {'lat': 47.17920871970851, 'lng': 8.447606219708499}}}, 'partial_match': True, 'place_id': 'ChIJSQHeXPcAkEcRs7Xwlm7Rtj0', 'plus_code': {'compound_code': '5CJX+6H Cham, Switzerland', 'global_code': '8FVC5CJX+6H'}, 'types': ['street_address']}], 'status': 'OK'}","Klostermatt 4, 6330 Cham"
31,"{'results': [{'address_components': [{'long_name': '2', 'short_name': '2', 'types': ['street_number']}, {'long_name': 'Lindenstrasse', 'short_name': 'Lindenstrasse', 'types': ['route']}, {'long_name': 'Baar', 'short_name': 'Baar', 'types': ['locality', 'political']}, {'long_name': 'Zug', 'short_name': 'Zug', 'types': ['administrative_area_level_2', 'political']}, {'long_name': 'Zug', 'short_name': 'ZG', 'types': ['administrative_area_level_1', 'political']}, {'long_name': 'Switzerland', 'short_name': 'CH', 'types': ['country', 'political']}, {'long_name': '6340', 'short_name': '6340', 'types': ['postal_code']}], 'formatted_address': 'Lindenstrasse 2, 6340 Baar, Switzerland', 'geometry': {'location': {'lat': 47.18441809999999, 'lng': 8.5181583}, 'location_type': 'ROOFTOP', 'viewport': {'northeast': {'lat': 47.1857670802915, 'lng': 8.519507280291503}, 'southwest': {'lat': 47.1830691197085, 'lng': 8.516809319708498}}}, 'partial_match': True, 'place_id': 'ChIJg-R3UESqmkcRREqBn2A-Tl8', 'plus_code': {'compound_code': '5GM9+Q7 Baar, Switzerland', 'global_code': '8FVC5GM9+Q7'}, 'types': ['street_address']}], 'status': 'OK'}","Lindenstrasse 2, 6340 Baar"
32,"{'results': [{'address_components': [{'long_name': '5', 'short_name': '5', 'types': ['street_number']}, {'long_name': 'Fabrikstrasse', 'short_name': 'Fabrikstrasse', 'types': ['route']}, {'long_name': 'Cham', 'short_name': 'Cham', 'types': ['locality', 'political']}, {'long_name': 'Zug', 'short_name': 'Zug', 'types': ['administrative_area_level_2', 'political']}, {'long_name': 'Zug', 'short_name': 'ZG', 'types': ['administrative_area_level_1', 'political']}, {'long_name': 'Switzerland', 'short_name': 'CH', 'types': ['country', 'political']}, {'long_name': '6330', 'short_name': '6330', 'types': ['postal_code']}], 'formatted_address': 'Fabrikstrasse 5, 6330 Cham, Switzerland', 'geometry': {'location': {'lat': 47.1847147, 'lng': 8.4580561}, 'location_type': 'ROOFTOP', 'viewport': {'northeast': {'lat': 47.1860636802915, 'lng': 8.459405080291504}, 'southwest': {'lat': 47.1833657197085, 'lng': 8.456707119708499}}}, 'partial_match': True, 'place_id': 'ChIJAQCcUvMAkEcR0fSm24SRO3c', 'plus_code': {'compound_code': '5FM5+V6 Cham, Switzerland', 'global_code': '8FVC5FM5+V6'}, 'types': ['street_address']}], 'status': 'OK'}","Fabrikstrasse 5, 6330 Cham"
33,"{'results': [{'address_components': [{'long_name': '7', 'short_name': '7', 'types': ['street_number']}, {'long_name': 'Gewerbestrasse', 'short_name': 'Gewerbestrasse', 'types': ['route']}, {'long_name': 'Cham', 'short_name': 'Cham', 'types': ['locality', 'political']}, {'long_name': 'Zug', 'short_name': 'Zug', 'types': ['administrative_area_level_2', 'political']}, {'long_name': 'Zug', 'short_name': 'ZG', 'types': ['administrative_area_level_1', 'political']}, {'long_name': 'Switzerland', 'short_name': 'CH', 'types': ['country', 'political']}, {'long_name': '6330', 'short_name': '6330', 'types': ['postal_code']}], 'formatted_address': 'Gewerbestrasse 7, 6330 Cham, Switzerland', 'geometry': {'bounds': {'northeast': {'lat': 47.1886758, 'lng': 8.4729811}, 'southwest': {'lat': 47.18824679999999, 'lng': 8.4725928}}, 'location': {'lat': 47.1883642, 'lng': 8.4727984}, 'location_type': 'ROOFTOP', 'viewport': {'northeast': {'lat': 47.1898102802915, 'lng': 8.474135930291503}, 'southwest': {'lat': 47.1871123197085, 'lng': 8.471437969708498}}}, 'partial_match': True, 'place_id': 'ChIJG8twwpAAkEcRTDfyGJq4QXI', 'types': ['premise']}], 'status': 'OK'}","Gewerbestrasse 7, 6330 Cham"
34,"{'results': [{'address_components': [{'long_name': '1', 'short_name': '1', 'types': ['street_number']}, {'long_name': 'Seeblick', 'short_name': 'Seeblick', 'types': ['route']}, {'long_name': 'Cham', 'short_name': 'Cham', 'types': ['locality', 'political']}, {'long_name': 'Zug', 'short_name': 'Zug', 'types': ['administrative_area_level_2', 'political']}, {'long_name': 'Zug', 'short_name': 'ZG', 'types': ['administrative_area_level_1', 'political']}, {'long_name': 'Switzerland', 'short_name': 'CH', 'types': ['country', 'political']}, {'long_name': '6330', 'short_name': '6330', 'types': ['postal_code']}], 'formatted_address': 'Seeblick 1, 6330 Cham, Switzerland', 'geometry': {'bounds': {'northeast': {'lat': 47.1818114, 'lng': 8.467007599999999}, 'southwest': {'lat': 47.18154759999999, 'lng': 8.4661062}}, 'location': {'lat': 47.1816492, 'lng': 8.4665926}, 'location_type': 'ROOFTOP', 'viewport': {'northeast': {'lat': 47.1830284802915, 'lng': 8.467905880291502}, 'southwest': {'lat': 47.1803305197085, 'lng': 8.465207919708497}}}, 'partial_match': True, 'place_id': 'ChIJM9dUIIwAkEcR9EJlggkmwzk', 'types': ['premise']}], 'status': 'OK'}","Seeblick 1, 6330 Cham"
35,"{'results': [{'address_components': [{'long_name': '5', 'short_name': '5', 'types': ['street_number']}, {'long_name': 'Ruessenstrasse', 'short_name': 'Ruessenstrasse', 'types': ['route']}, {'long_name': 'Baar', 'short_name': 'Baar', 'types': ['locality', 'political']}, {'long_name': 'Zug', 'short_name': 'Zug', 'types': ['administrative_area_level_2', 'political']}, {'long_name': 'Zug', 'short_name': 'ZG', 'types': ['administrative_area_level_1', 'political']}, {'long_name': 'Switzerland', 'short_name': 'CH', 'types': ['country', 'political']}, {'long_name': '6340', 'short_name': '6340', 'types': ['postal_code']}], 'formatted_address': 'Ruessenstrasse 5, 6340 Baar, Switzerland', 'geometry': {'location': {'lat': 47.212502, 'lng': 8.5633269}, 'location_type': 'ROOFTOP', 'viewport': {'northeast': {'lat': 47.2138509802915, 'lng': 8.564675880291501}, 'southwest': {'lat': 47.2111530197085, 'lng': 8.561977919708497}}}, 'partial_match': True, 'place_id': 'ChIJjz2d1GapmkcRnvJ23jrWkG8', 'plus_code': {'compound_code': '6H77+28 Baar, Switzerland', 'global_code': '8FVC6H77+28'}, 'types': ['street_address']}], 'status': 'OK'}","Ruessenstrasse 5, 6340 Baar"
36,"{'results': [{'address_components': [{'long_name': '9', 'short_name': '9', 'types': ['street_number']}, {'long_name': 'Lettenstrasse', 'short_name': 'Lettenstrasse', 'types': ['route']}, {'long_name': 'Rotkreuz ZG', 'short_name': 'Rotkreuz ZG', 'types': ['locality', 'political']}, {'long_name': 'Zug', 'short_name': 'Zug', 'types': ['administrative_area_level_2', 'political']}, {'long_name': 'Zug', 'short_name': 'ZG', 'types': ['administrative_area_level_1', 'political']}, {'long_name': 'Switzerland', 'short_name': 'CH', 'types': ['country', 'political']}, {'long_name': '6343', 'short_name': '6343', 'types': ['postal_code']}], 'formatted_address': 'Lettenstrasse 9, 6343 Rotkreuz ZG, Switzerland', 'geometry': {'bounds': {'northeast': {'lat': 47.1472945, 'lng': 8.4323949}, 'southwest': {'lat': 47.1464168, 'lng': 8.4307427}}, 'location': {'lat': 47.146771, 'lng': 8.4315454}, 'location_type': 'ROOFTOP', 'viewport': {'northeast': {'lat': 47.1482046302915, 'lng': 8.432917780291502}, 'southwest': {'lat': 47.1455066697085, 'lng': 8.430219819708498}}}, 'partial_match': True, 'place_id': 'ChIJq1Ug2y0AkEcR_ExjliT2sKU', 'types': ['premise']}], 'status': 'OK'}","Lettenstrasse 9, 6343 Rotkreuz"
37,"{'results': [{'address_components': [{'long_name': '1', 'short_name': '1', 'types': ['street_number']}, {'long_name': 'Luzernerstrasse', 'short_name': 'Luzernerstrasse', 'types': ['route']}, {'long_name': 'Rotkreuz ZG', 'short_name': 'Rotkreuz ZG', 'types': ['locality', 'political']}, {'long_name': 'Zug', 'short_name': 'Zug', 'types': ['administrative_area_level_2', 'political']}, {'long_name': 'Zug', 'short_name': 'ZG', 'types': ['administrative_area_level_1', 'political']}, {'long_name': 'Switzerland', 'short_name': 'CH', 'types': ['country', 'political']}, {'long_name': '6343', 'short_name': '6343', 'types': ['postal_code']}], 'formatted_address': 'Luzernerstrasse 1, 6343 Rotkreuz ZG, Switzerland', 'geometry': {'bounds': {'northeast': {'lat': 47.1410468, 'lng': 8.428258699999999}, 'southwest': {'lat': 47.1408654, 'lng': 8.4279999}}, 'location': {'lat': 47.1409457, 'lng': 8.428142}, 'location_type': 'ROOFTOP', 'viewport': {'northeast': {'lat': 47.14230508029149, 'lng': 8.429478280291503}, 'southwest': {'lat': 47.13960711970849, 'lng': 8.426780319708499}}}, 'partial_match': True, 'place_id': 'ChIJKfs0UCoAkEcRI_PmKNn-gwE', 'types': ['premise']}], 'status': 'OK'}","Luzernerstrasse 1, 6343 Rotkreuz"
38,"{'results': [{'address_components': [{'long_name': '7', 'short_name': '7', 'types': ['street_number']}, {'long_name': 'Rathausstrasse', 'short_name': 'Rathausstrasse', 'types': ['route']}, {'long_name': 'Baar', 'short_name': 'Baar', 'types': ['locality', 'political']}, {'long_name': 'Zug', 'short_name': 'Zug', 'types': ['administrative_area_level_2', 'political']}, {'long_name': 'Zug', 'short_name': 'ZG', 'types': ['administrative_area_level_1', 'political']}, {'long_name': 'Switzerland', 'short_name': 'CH', 'types': ['country', 'political']}, {'long_name': '6340', 'short_name': '6340', 'types': ['postal_code']}], 'formatted_address': 'Rathausstrasse 7, 6340 Baar, Switzerland', 'geometry': {'location': {'lat': 47.195167, 'lng': 8.5257887}, 'location_type': 'ROOFTOP', 'viewport': {'northeast': {'lat': 47.19651598029149, 'lng': 8.527137680291503}, 'southwest': {'lat': 47.19381801970849, 'lng': 8.524439719708498}}}, 'partial_match': True, 'place_id': 'ChIJC-aQUTeqmkcR8sRoRo8TSto', 'plus_code': {'compound_code': '5GWG+38 Baar, Switzerland', 'global_code': '8FVC5GWG+38'}, 'types': ['street_address']}], 'status': 'OK'}","Rathausstrasse 7, 6340 Baar"
39,"{'results': [{'address_components': [{'long_name': '6', 'short_name': '6', 'types': ['street_number']}, {'long_name': 'Grundstrasse', 'short_name': 'Grundstrasse', 'types': ['route']}, {'long_name': 'Rotkreuz ZG', 'short_name': 'Rotkreuz ZG', 'types': ['locality', 'political']}, {'long_name': 'Zug', 'short_name': 'Zug', 'types': ['administrative_area_level_2', 'political']}, {'long_name': 'Zug', 'short_name': 'ZG', 'types': ['administrative_area_level_1', 'political']}, {'long_name': 'Switzerland', 'short_name': 'CH', 'types': ['country', 'political']}, {'long_name': '6343', 'short_name': '6343', 'types': ['postal_code']}], 'formatted_address': 'Grundstrasse 6, 6343 Rotkreuz ZG, Switzerland', 'geometry': {'bounds': {'northeast': {'lat': 47.1453639, 'lng': 8.430205299999999}, 'southwest': {'lat': 47.1451737, 'lng': 8.4298707}}, 'location': {'lat': 47.1452532, 'lng': 8.4300344}, 'location_type': 'ROOFTOP', 'viewport': {'northeast': {'lat': 47.1466177802915, 'lng': 8.431386980291503}, 'southwest': {'lat': 47.1439198197085, 'lng': 8.428689019708498}}}, 'partial_match': True, 'place_id': 'ChIJwaYsQSwAkEcRUCPJG1dTuwA', 'types': ['premise']}], 'status': 'OK'}","Grundstrasse 6, 6343 Rotkreuz"
40,"{'results': [{'address_components': [{'long_name': 'Hammergut', 'short_name': 'Hammergut', 'types': ['premise']}, {'long_name': 'Cham', 'short_name': 'Cham', 'types': ['locality', 'political']}, {'long_name': 'Zug', 'short_name': 'Zug', 'types': ['administrative_area_level_2', 'political']}, {'long_name': 'Zug', 'short_name': 'ZG', 'types': ['administrative_area_level_1', 'political']}, {'long_name': 'Switzerland', 'short_name': 'CH', 'types': ['country', 'political']}, {'long_name': '6330', 'short_name': '6330', 'types': ['postal_code']}], 'formatted_address': 'Hammergut, 6330 Cham, Switzerland', 'geometry': {'location': {'lat': 47.18793240000001, 'lng': 8.4522316}, 'location_type': 'ROOFTOP', 'viewport': {'northeast': {'lat': 47.18928138029151, 'lng': 8.4535805802915}, 'southwest': {'lat': 47.18658341970851, 'lng': 8.450882619708496}}}, 'partial_match': True, 'place_id': 'ChIJxeFPvO8AkEcRbb6uXzSLmNg', 'plus_code': {'compound_code': '5FQ2+5V Cham, Switzerland', 'global_code': '8FVC5FQ2+5V'}, 'types': ['premise']}], 'status': 'OK'}","Hammergut 6, 6330 Cham"
41,"{'results': [{'address_components': [{'long_name': '9', 'short_name': '9', 'types': ['street_number']}, {'long_name': 'Blegistrasse', 'short_name': 'Blegistrasse', 'types': ['route']}, {'long_name': 'Baar', 'short_name': 'Baar', 'types': ['locality', 'political']}, {'long_name': 'Zug', 'short_name': 'Zug', 'types': ['administrative_area_level_2', 'political']}, {'long_name': 'Zug', 'short_name': 'ZG', 'types': ['administrative_area_level_1', 'political']}, {'long_name': 'Switzerland', 'short_name': 'CH', 'types': ['country', 'political']}, {'long_name': '6340', 'short_name': '6340', 'types': ['postal_code']}], 'formatted_address': 'Blegistrasse 9, 6340 Baar, Switzerland', 'geometry': {'location': {'lat': 47.2159991, 'lng': 8.570899599999999}, 'location_type': 'ROOFTOP', 'viewport': {'northeast': {'lat': 47.2173480802915, 'lng': 8.5722485802915}, 'southwest': {'lat': 47.2146501197085, 'lng': 8.569550619708496}}}, 'partial_match': True, 'place_id': 'ChIJjaBn2FypmkcRwz8yQIXgIS8', 'plus_code': {'compound_code': '6H8C+99 Baar, Switzerland', 'global_code': '8FVC6H8C+99'}, 'types': ['street_address']}, {'address_components': [{'long_name': 'California', 'short_name': 'CA', 'types': ['administrative_area_level_1', 'political']}, {'long_name': 'United States', 'short_name': 'US', 'types': ['country', 'political']}], 'formatted_address': 'California, USA', 'geometry': {'bounds': {'northeast': {'lat': 42.0095169, 'lng': -114.131211}, 'southwest': {'lat': 32.528832, 'lng': -124.482003}}, 'location': {'lat': 36.778261, 'lng': -119.4179324}, 'location_type': 'APPROXIMATE', 'viewport': {'northeast': {'lat': 42.0095169, 'lng': -114.131211}, 'southwest': {'lat': 32.528832, 'lng': -124.482003}}}, 'partial_match': True, 'place_id': 'ChIJPV4oX_65j4ARVW8IJ6IJUYs', 'types': ['administrative_area_level_1', 'political']}], 'status': 'OK'}","Blegistrasse 9, 6340 Baar"
42,"{'results': [{'address_components': [{'long_name': '3', 'short_name': '3', 'types': ['street_number']}, {'long_name': 'Blegistrasse', 'short_name': 'Blegistrasse', 'types': ['route']}, {'long_name': 'Baar', 'short_name': 'Baar', 'types': ['locality', 'political']}, {'long_name': 'Zug', 'short_name': 'Zug', 'types': ['administrative_area_level_2', 'political']}, {'long_name': 'Zug', 'short_name': 'ZG', 'types': ['administrative_area_level_1', 'political']}, {'long_name': 'Switzerland', 'short_name': 'CH', 'types': ['country', 'political']}, {'long_name': '6340', 'short_name': '6340', 'types': ['postal_code']}], 'formatted_address': 'Blegistrasse 3, 6340 Baar, Switzerland', 'geometry': {'location': {'lat': 47.2162108, 'lng': 8.5722375}, 'location_type': 'ROOFTOP', 'viewport': {'northeast': {'lat': 47.2175597802915, 'lng': 8.573586480291503}, 'southwest': {'lat': 47.2148618197085, 'lng': 8.570888519708499}}}, 'partial_match': True, 'place_id': 'ChIJF5-vyVypmkcR8RNMtJ2VShY', 'plus_code': {'compound_code': '6H8C+FV Baar, Switzerland', 'global_code': '8FVC6H8C+FV'}, 'types': ['street_address']}], 'status': 'OK'}","Blegistrasse 3, 6340 Baar"
43,"{'results': [{'address_components': [{'long_name': '2', 'short_name': '2', 'types': ['street_number']}, {'long_name': 'Schochenmühlestrasse', 'short_name': 'Schochenmühlestrasse', 'types': ['route']}, {'long_name': 'Zug', 'short_name': 'Zug', 'types': ['locality', 'political']}, {'long_name': 'Zug', 'short_name': 'Zug', 'types': ['administrative_area_level_2', 'political']}, {'long_name': 'Zug', 'short_name': 'ZG', 'types': ['administrative_area_level_1', 'political']}, {'long_name': 'Switzerland', 'short_name': 'CH', 'types': ['country', 'political']}, {'long_name': '6300', 'short_name': '6300', 'types': ['postal_code']}], 'formatted_address': 'Schochenmühlestrasse 2, 6300 Zug, Switzerland', 'geometry': {'bounds': {'northeast': {'lat': 47.1918217, 'lng': 8.512278199999999}, 'southwest': {'lat': 47.1914522, 'lng': 8.5116516}}, 'location': {'lat': 47.1916267, 'lng': 8.5119762}, 'location_type': 'ROOFTOP', 'viewport': {'northeast': {'lat': 47.1929859302915, 'lng': 8.513313880291502}, 'southwest': {'lat': 47.1902879697085, 'lng': 8.510615919708497}}}, 'partial_match': True, 'place_id': 'ChIJb3bJqmqqmkcRL1Fx84lde6s', 'types': ['premise']}], 'status': 'OK'}","Schochenmühlestrasse 2, 6340 Baar"
44,"{'results': [{'address_components': [{'long_name': '4', 'short_name': '4', 'types': ['street_number']}, {'long_name': 'Lindenstrasse', 'short_name': 'Lindenstrasse', 'types': ['route']}, {'long_name': 'Baar', 'short_name': 'Baar', 'types': ['locality', 'political']}, {'long_name': 'Zug', 'short_name': 'Zug', 'types': ['administrative_area_level_2', 'political']}, {'long_name': 'Zug', 'short_name': 'ZG', 'types': ['administrative_area_level_1', 'political']}, {'long_name': 'Switzerland', 'short_name': 'CH', 'types': ['country', 'political']}, {'long_name': '6340', 'short_name': '6340', 'types': ['postal_code']}], 'formatted_address': 'Lindenstrasse 4, 6340 Baar, Switzerland', 'geometry': {'location': {'lat': 47.1843865, 'lng': 8.5177284}, 'location_type': 'ROOFTOP', 'viewport': {'northeast': {'lat': 47.18573548029149, 'lng': 8.5190773802915}, 'southwest': {'lat': 47.1830375197085, 'lng': 8.516379419708496}}}, 'partial_match': True, 'place_id': 'ChIJdy6XXESqmkcRK6D1gAYz7Ic', 'plus_code': {'compound_code': '5GM9+Q3 Baar, Switzerland', 'global_code': '8FVC5GM9+Q3'}, 'types': ['street_address']}], 'status': 'OK'}","Lindenstrasse 4, 6340 Baar"
45,"{'results': [{'address_components': [{'long_name': '6', 'short_name': '6', 'types': ['street_number']}, {'long_name': 'Zugerstrasse', 'short_name': 'Zugerstrasse', 'types': ['route']}, {'long_name': 'Cham', 'short_name': 'Cham', 'types': ['locality', 'political']}, {'long_name': 'Zug', 'short_name': 'Zug', 'types': ['administrative_area_level_2', 'political']}, {'long_name': 'Zug', 'short_name': 'ZG', 'types': ['administrative_area_level_1', 'political']}, {'long_name': 'Switzerland', 'short_name': 'CH', 'types': ['country', 'political']}, {'long_name': '6330', 'short_name': '6330', 'types': ['postal_code']}], 'formatted_address': 'Zugerstrasse 6, 6330 Cham, Switzerland', 'geometry': {'location': {'lat': 47.1812626, 'lng': 8.4600777}, 'location_type': 'ROOFTOP', 'viewport': {'northeast': {'lat': 47.18261158029151, 'lng': 8.461426680291503}, 'southwest': {'lat': 47.17991361970851, 'lng': 8.458728719708498}}}, 'partial_match': True, 'place_id': 'ChIJm6h9UfMAkEcRofxgyM3g6pA', 'plus_code': {'compound_code': '5FJ6+G2 Cham, Switzerland', 'global_code': '8FVC5FJ6+G2'}, 'types': ['street_address']}], 'status': 'OK'}","Zugerstrasse 6, 6330 Cham"
46,"{'results': [{'address_components': [{'long_name': '1', 'short_name': '1', 'types': ['street_number']}, {'long_name': 'Zugerstrasse', 'short_name': 'Zugerstrasse', 'types': ['route']}, {'long_name': 'Cham', 'short_name': 'Cham', 'types': ['locality', 'political']}, {'long_name': 'Zug', 'short_name': 'Zug', 'types': ['administrative_area_level_2', 'political']}, {'long_name': 'Zug', 'short_name': 'ZG', 'types': ['administrative_area_level_1', 'political']}, {'long_name': 'Switzerland', 'short_name': 'CH', 'types': ['country', 'political']}, {'long_name': '6330', 'short_name': '6330', 'types': ['postal_code']}], 'formatted_address': 'Zugerstrasse 1, 6330 Cham, Switzerland', 'geometry': {'bounds': {'northeast': {'lat': 47.1816604, 'lng': 8.4595828}, 'southwest': {'lat': 47.181387, 'lng': 8.4592692}}, 'location': {'lat': 47.181569, 'lng': 8.4593973}, 'location_type': 'ROOFTOP', 'viewport': {'northeast': {'lat': 47.1828726802915, 'lng': 8.460774980291502}, 'southwest': {'lat': 47.1801747197085, 'lng': 8.458077019708497}}}, 'partial_match': True, 'place_id': 'ChIJB_Y_Q_MAkEcRgAER1Bq8e9E', 'types': ['premise']}], 'status': 'OK'}","Zugerstrasse 1, 6330 Cham"
47,"{'results': [{'address_components': [{'long_name': '3', 'short_name': '3', 'types': ['street_number']}, {'long_name': 'Rosenweg', 'short_name': 'Rosenweg', 'types': ['route']}, {'long_name': 'Baar', 'short_name': 'Baar', 'types': ['locality', 'political']}, {'long_name': 'Zug', 'short_name': 'Zug', 'types': ['administrative_area_level_2', 'political']}, {'long_name': 'Zug', 'short_name': 'ZG', 'types': ['administrative_area_level_1', 'political']}, {'long_name': 'Switzerland', 'short_name': 'CH', 'types': ['country', 'political']}, {'long_name': '6340', 'short_name': '6340', 'types': ['postal_code']}], 'formatted_address': 'Rosenweg 3, 6340 Baar, Switzerland', 'geometry': {'bounds': {'northeast': {'lat': 47.1857615, 'lng': 8.522225500000001}, 'southwest': {'lat': 47.1855382, 'lng': 8.522022999999999}}, 'location': {'lat': 47.18566939999999, 'lng': 8.5221149}, 'location_type': 'ROOFTOP', 'viewport': {'northeast': {'lat': 47.18699883029149, 'lng': 8.523473230291502}, 'southwest': {'lat': 47.18430086970849, 'lng': 8.520775269708498}}}, 'partial_match': True, 'place_id': 'ChIJISAm-UWqmkcRCKicvByrCv4', 'types': ['premise']}], 'status': 'OK'}","Rosenweg 3, 6340 Baar"
48,"{'results': [{'address_components': [{'long_name': '6', 'short_name': '6', 'types': ['street_number']}, {'long_name': 'Baarermattstrasse', 'short_name': 'Baarermattstrasse', 'types': ['route']}, {'long_name': 'Zug', 'short_name': 'Zug', 'types': ['locality', 'political']}, {'long_name': 'Zug', 'short_name': 'Zug', 'types': ['administrative_area_level_2', 'political']}, {'long_name': 'Zug', 'short_name': 'ZG', 'types': ['administrative_area_level_1', 'political']}, {'long_name': 'Switzerland', 'short_name': 'CH', 'types': ['country', 'political']}, {'long_name': '6300', 'short_name': '6300', 'types': ['postal_code']}], 'formatted_address': 'Baarermattstrasse 6, 6300 Zug, Switzerland', 'geometry': {'bounds': {'northeast': {'lat': 47.1813167, 'lng': 8.5260904}, 'southwest': {'lat': 47.1807441, 'lng': 8.525216499999999}}, 'location': {'lat': 47.1810419, 'lng': 8.5257548}, 'location_type': 'ROOFTOP', 'viewport': {'northeast': {'lat': 47.18237938029149, 'lng': 8.527002430291502}, 'southwest': {'lat': 47.1796814197085, 'lng': 8.524304469708499}}}, 'partial_match': True, 'place_id': 'ChIJewceH06qmkcR-rbhtjqebUE', 'types': ['premise']}], 'status': 'OK'}","Baarermattstrasse 6, 6340 Baar"
49,"{'results': [{'address_components': [{'long_name': '6', 'short_name': '6', 'types': ['street_number']}, {'long_name': 'Schochenmühlestrasse', 'short_name': 'Schochenmühlestrasse', 'types': ['route']}, {'long_name': 'Baar', 'short_name': 'Baar', 'types': ['locality', 'political']}, {'long_name': 'Zug', 'short_name': 'Zug', 'types': ['administrative_area_level_2', 'political']}, {'long_name': 'Zug', 'short_name': 'ZG', 'types': ['administrative_area_level_1', 'political']}, {'long_name': 'Switzerland', 'short_name': 'CH', 'types': ['country', 'political']}, {'long_name': '6340', 'short_name': '6340', 'types': ['postal_code']}], 'formatted_address': 'Schochenmühlestrasse 6, 6340 Baar, Switzerland', 'geometry': {'location': {'lat': 47.1924273, 'lng': 8.5123236}, 'location_type': 'ROOFTOP', 'viewport': {'northeast': {'lat': 47.1937762802915, 'lng': 8.513672580291502}, 'southwest': {'lat': 47.1910783197085, 'lng': 8.510974619708497}}}, 'partial_match': True, 'place_id': 'ChIJM3xk4j-qmkcRmAcu05t-xCE', 'plus_code': {'compound_code': '5GR6+XW Baar, Switzerland', 'global_code': '8FVC5GR6+XW'}, 'types': ['street_address']}], 'status': 'OK'}","Schochenmühlestrasse 6, 6340 Baar"
50,"{'results': [{'address_components': [{'long_name': '97', 'short_name': '97', 'types': ['street_number']}, {'long_name': 'Eichmattstrasse', 'short_name': 'Eichmattstrasse', 'types': ['route']}, {'long_name': 'Hünenberg', 'short_name': 'Hünenberg', 'types': ['locality', 'political']}, {'long_name': 'Zug', 'short_name': 'Zug', 'types': ['administrative_area_level_2', 'political']}, {'long_name': 'Zug', 'short_name': 'ZG', 'types': ['administrative_area_level_1', 'political']}, {'long_name': 'Switzerland', 'short_name': 'CH', 'types': ['country', 'political']}, {'long_name': '6333', 'short_name': '6333', 'types': ['postal_code']}], 'formatted_address': 'Eichmattstrasse 97, 6333 Hünenberg, Switzerland', 'geometry': {'bounds': {'northeast': {'lat': 47.17931189999999, 'lng': 8.4433205}, 'southwest': {'lat': 47.1791388, 'lng': 8.443069999999999}}, 'location': {'lat': 47.1792367, 'lng': 8.443230999999999}, 'location_type': 'ROOFTOP', 'viewport': {'northeast': {'lat': 47.1805743302915, 'lng': 8.444544230291504}, 'southwest': {'lat': 47.1778763697085, 'lng': 8.441846269708499}}}, 'partial_match': True, 'place_id': 'ChIJ_T7M3fgAkEcRHqEJr5qCC7A', 'types': ['premise']}, {'address_components': [{'long_name': 'California', 'short_name': 'CA', 'types': ['administrative_area_level_1', 'political']}, {'long_name': 'United States', 'short_name': 'US', 'types': ['country', 'political']}], 'formatted_address': 'California, USA', 'geometry': {'bounds': {'northeast': {'lat': 42.0095169, 'lng': -114.131211}, 'southwest': {'lat': 32.528832, 'lng': -124.482003}}, 'location': {'lat': 36.778261, 'lng': -119.4179324}, 'location_type': 'APPROXIMATE', 'viewport': {'northeast': {'lat': 42.0095169, 'lng': -114.131211}, 'southwest': {'lat': 32.528832, 'lng': -124.482003}}}, 'partial_match': True, 'place_id': 'ChIJPV4oX_65j4ARVW8IJ6IJUYs', 'types': ['administrative_area_level_1', 'political']}], 'status': 'OK'}","Eichmattstrasse 97, 6333 Hünenberg See"
51,"{'results': [{'address_components': [{'long_name': '2', 'short_name': '2', 'types': ['street_number']}, {'long_name': 'Arbachstrasse', 'short_name': 'Arbachstrasse', 'types': ['route']}, {'long_name': 'Baar', 'short_name': 'Baar', 'types': ['locality', 'political']}, {'long_name': 'Zug', 'short_name': 'Zug', 'types': ['administrative_area_level_2', 'political']}, {'long_name': 'Zug', 'short_name': 'ZG', 'types': ['administrative_area_level_1', 'political']}, {'long_name': 'Switzerland', 'short_name': 'CH', 'types': ['country', 'political']}, {'long_name': '6340', 'short_name': '6340', 'types': ['postal_code']}], 'formatted_address': 'Arbachstrasse 2, 6340 Baar, Switzerland', 'geometry': {'bounds': {'northeast': {'lat': 47.182143, 'lng': 8.5327229}, 'southwest': {'lat': 47.1819855, 'lng': 8.532514599999999}}, 'location': {'lat': 47.1820834, 'lng': 8.5326111}, 'location_type': 'ROOFTOP', 'viewport': {'northeast': {'lat': 47.1834132302915, 'lng': 8.5339677302915}, 'southwest': {'lat': 47.1807152697085, 'lng': 8.531269769708498}}}, 'partial_match': True, 'place_id': 'ChIJYywNME2qmkcRQwq3poBg9CQ', 'types': ['premise']}], 'status': 'OK'}","Arbachstrasse 2, 6340 Baar"
52,"{'results': [{'address_components': [{'long_name': '5', 'short_name': '5', 'types': ['street_number']}, {'long_name': 'Aegeristrasse', 'short_name': 'Aegeristrasse', 'types': ['route']}, {'long_name': 'Zug', 'short_name': 'Zug', 'types': ['locality', 'political']}, {'long_name': 'Zug', 'short_name': 'Zug', 'types': ['administrative_area_level_2', 'political']}, {'long_name': 'Zug', 'short_name': 'ZG', 'types': ['administrative_area_level_1', 'political']}, {'long_name': 'Switzerland', 'short_name': 'CH', 'types': ['country', 'political']}, {'long_name': '6300', 'short_name': '6300', 'types': ['postal_code']}], 'formatted_address': 'Aegeristrasse 5, 6300 Zug, Switzerland', 'geometry': {'location': {'lat': 47.1662252, 'lng': 8.5163199}, 'location_type': 'ROOFTOP', 'viewport': {'northeast': {'lat': 47.1675741802915, 'lng': 8.5176688802915}, 'southwest': {'lat': 47.1648762197085, 'lng': 8.514970919708496}}}, 'place_id': 'ChIJze6A9gMKkEcR4uVlPZHi7hc', 'plus_code': {'compound_code': '5G88+FG Zug, Switzerland', 'global_code': '8FVC5G88+FG'}, 'types': ['establishment', 'furniture_store', 'home_goods_store', 'point_of_interest', 'store']}], 'status': 'OK'}","Aegeristrasse 5, 6300 Zug"
53,"{'results': [{'address_components': [{'long_name': '5a', 'short_name': '5a', 'types': ['street_number']}, {'long_name': 'Grabenstrasse', 'short_name': 'Grabenstrasse', 'types': ['route']}, {'long_name': 'Baar', 'short_name': 'Baar', 'types': ['locality', 'political']}, {'long_name': 'Zug', 'short_name': 'Zug', 'types': ['administrative_area_level_2', 'political']}, {'long_name': 'Zug', 'short_name': 'ZG', 'types': ['administrative_area_level_1', 'political']}, {'long_name': 'Switzerland', 'short_name': 'CH', 'types': ['country', 'political']}, {'long_name': '6340', 'short_name': '6340', 'types': ['postal_code']}], 'formatted_address': 'Grabenstrasse 5a, 6340 Baar, Switzerland', 'geometry': {'location': {'lat': 47.1861815, 'lng': 8.5195115}, 'location_type': 'ROOFTOP', 'viewport': {'northeast': {'lat': 47.18753048029151, 'lng': 8.520860480291503}, 'southwest': {'lat': 47.18483251970851, 'lng': 8.518162519708499}}}, 'partial_match': True, 'place_id': 'ChIJF0pY1UWqmkcR0NyV33iUgBs', 'plus_code': {'compound_code': '5GP9+FR Baar, Switzerland', 'global_code': '8FVC5GP9+FR'}, 'types': ['street_address']}], 'status': 'OK'}","Grabenstrasse 5A, 6340 Baar"
54,"{'results': [{'address_components': [{'long_name': '8B', 'short_name': '8B', 'types': ['street_number']}, {'long_name': 'Rosenweg', 'short_name': 'Rosenweg', 'types': ['route']}, {'long_name': 'Baar', 'short_name': 'Baar', 'types': ['locality', 'political']}, {'long_name': 'Zug', 'short_name': 'Zug', 'types': ['administrative_area_level_2', 'political']}, {'long_name': 'Zug', 'short_name': 'ZG', 'types': ['administrative_area_level_1', 'political']}, {'long_name': 'Switzerland', 'short_name': 'CH', 'types': ['country', 'political']}, {'long_name': '6340', 'short_name': '6340', 'types': ['postal_code']}], 'formatted_address': 'Rosenweg 8B, 6340 Baar, Switzerland', 'geometry': {'location': {'lat': 47.1859786, 'lng': 8.522523999999999}, 'location_type': 'ROOFTOP', 'viewport': {'northeast': {'lat': 47.18732758029149, 'lng': 8.5238729802915}, 'southwest': {'lat': 47.1846296197085, 'lng': 8.521175019708497}}}, 'partial_match': True, 'place_id': 'ChIJl0jKqkiqmkcRTId2kK5uTbQ', 'plus_code': {'compound_code': '5GPF+92 Baar, Switzerland', 'global_code': '8FVC5GPF+92'}, 'types': ['street_address']}], 'status': 'OK'}","Rosenweg 8B, 6340 Baar"
55,"{'results': [{'address_components': [{'long_name': '3', 'short_name': '3', 'types': ['street_number']}, {'long_name': 'Baarermattstrasse', 'short_name': 'Baarermattstrasse', 'types': ['route']}, {'long_name': 'Baar', 'short_name': 'Baar', 'types': ['locality', 'political']}, {'long_name': 'Zug', 'short_name': 'Zug', 'types': ['administrative_area_level_2', 'political']}, {'long_name': 'Zug', 'short_name': 'ZG', 'types': ['administrative_area_level_1', 'political']}, {'long_name': 'Switzerland', 'short_name': 'CH', 'types': ['country', 'political']}, {'long_name': '6340', 'short_name': '6340', 'types': ['postal_code']}], 'formatted_address': 'Baarermattstrasse 3, 6340 Baar, Switzerland', 'geometry': {'location': {'lat': 47.1812592, 'lng': 8.5269408}, 'location_type': 'ROOFTOP', 'viewport': {'northeast': {'lat': 47.1826081802915, 'lng': 8.528289780291503}, 'southwest': {'lat': 47.1799102197085, 'lng': 8.525591819708499}}}, 'partial_match': True, 'place_id': 'ChIJu36_B06qmkcRvSQ-za_dXsA', 'plus_code': {'compound_code': '5GJG+GQ Baar, Switzerland', 'global_code': '8FVC5GJG+GQ'}, 'types': ['street_address']}], 'status': 'OK'}","Baarermattstrasse 3, 6340 Baar"
56,"{'results': [{'address_components': [{'long_name': '5', 'short_name': '5', 'types': ['street_number']}, {'long_name': 'Aegeristrasse', 'short_name': 'Aegeristrasse', 'types': ['route']}, {'long_name': 'Zug', 'short_name': 'Zug', 'types': ['locality', 'political']}, {'long_name': 'Zug', 'short_name': 'Zug', 'types': ['administrative_area_level_2', 'political']}, {'long_name': 'Zug', 'short_name': 'ZG', 'types': ['administrative_area_level_1', 'political']}, {'long_name': 'Switzerland', 'short_name': 'CH', 'types': ['country', 'political']}, {'long_name': '6300', 'short_name': '6300', 'types': ['postal_code']}], 'formatted_address': 'Aegeristrasse 5, 6300 Zug, Switzerland', 'geometry': {'location': {'lat': 47.1662252, 'lng': 8.5163199}, 'location_type': 'ROOFTOP', 'viewport': {'northeast': {'lat': 47.1675741802915, 'lng': 8.5176688802915}, 'southwest': {'lat': 47.1648762197085, 'lng': 8.514970919708496}}}, 'place_id': 'ChIJU0tWFqCrmkcRFMLcszwdQJA', 'plus_code': {'compound_code': '5G88+FG Zug, Switzerland', 'global_code': '8FVC5G88+FG'}, 'types': ['clothing_store', 'establishment', 'point_of_interest', 'store']}], 'status': 'OK'}","Aegeristrasse 27, 6300 Zug"
57,"{'results': [{'address_components': [{'long_name': '9', 'short_name': '9', 'types': ['street_number']}, {'long_name': 'Gewerbestrasse', 'short_name': 'Gewerbestrasse', 'types': ['route']}, {'long_name': 'Cham', 'short_name': 'Cham', 'types': ['locality', 'political']}, {'long_name': 'Zug', 'short_name': 'Zug', 'types': ['administrative_area_level_2', 'political']}, {'long_name': 'Zug', 'short_name': 'ZG', 'types': ['administrative_area_level_1', 'political']}, {'long_name': 'Switzerland', 'short_name': 'CH', 'types': ['country', 'political']}, {'long_name': '6330', 'short_name': '6330', 'types': ['postal_code']}], 'formatted_address': 'Gewerbestrasse 9, 6330 Cham, Switzerland', 'geometry': {'location': {'lat': 47.1883705, 'lng': 8.472759}, 'location_type': 'ROOFTOP', 'viewport': {'northeast': {'lat': 47.18971948029149, 'lng': 8.474107980291501}, 'southwest': {'lat': 47.1870215197085, 'lng': 8.471410019708497}}}, 'partial_match': True, 'place_id': 'ChIJTZPH6ZAAkEcRpzjLhuSJQOU', 'plus_code': {'compound_code': '5FQF+84 Cham, Switzerland', 'global_code': '8FVC5FQF+84'}, 'types': ['street_address']}], 'status': 'OK'}","Gewerbestrasse 9, 6330 Cham"
58,"{'results': [{'address_components': [{'long_name': '3', 'short_name': '3', 'types': ['street_number']}, {'long_name': 'Bahnhof-Park', 'short_name': 'Bahnhof-Park', 'types': ['route']}, {'long_name': 'Baar', 'short_name': 'Baar', 'types': ['locality', 'political']}, {'long_name': 'Zug', 'short_name': 'Zug', 'types': ['administrative_area_level_2', 'political']}, {'long_name': 'Zug', 'short_name': 'ZG', 'types': ['administrative_area_level_1', 'political']}, {'long_name': 'Switzerland', 'short_name': 'CH', 'types': ['country', 'political']}, {'long_name': '6340', 'short_name': '6340', 'types': ['postal_code']}], 'formatted_address': 'Bahnhof-Park 3, 6340 Baar, Switzerland', 'geometry': {'location': {'lat': 47.195905, 'lng': 8.5230287}, 'location_type': 'ROOFTOP', 'viewport': {'northeast': {'lat': 47.19725398029149, 'lng': 8.524377680291503}, 'southwest': {'lat': 47.19455601970849, 'lng': 8.521679719708498}}}, 'partial_match': True, 'place_id': 'ChIJT3lfKDqqmkcRODOR7jDDlAA', 'plus_code': {'compound_code': '5GWF+96 Baar, Switzerland', 'global_code': '8FVC5GWF+96'}, 'types': ['street_address']}], 'status': 'OK'}","Bahnhof-Park 3, 6340 Baar"
59,"{'results': [{'address_components': [{'long_name': 'Bahnhofstrasse & 4', 'short_name': 'Bahnhofstrasse & 4', 'types': ['intersection']}, {'long_name': 'Baar', 'short_name': 'Baar', 'types': ['locality', 'political']}, {'long_name': 'Zug', 'short_name': 'Zug', 'types': ['administrative_area_level_2', 'political']}, {'long_name': 'Zug', 'short_name': 'ZG', 'types': ['administrative_area_level_1', 'political']}, {'long_name': 'Switzerland', 'short_name': 'CH', 'types': ['country', 'political']}, {'long_name': '6340', 'short_name': '6340', 'types': ['postal_code']}], 'formatted_address': 'Bahnhofstrasse & 4, 6340 Baar, Switzerland', 'geometry': {'location': {'lat': 47.1954877, 'lng': 8.5257086}, 'location_type': 'GEOMETRIC_CENTER', 'viewport': {'northeast': {'lat': 47.1968366802915, 'lng': 8.527057580291501}, 'southwest': {'lat': 47.1941387197085, 'lng': 8.524359619708497}}}, 'partial_match': True, 'place_id': 'EipCYWhuaG9mc3RyYXNzZSAmIDQsIDYzNDAgQmFhciwgU3dpdHplcmxhbmQiZiJkChQKEgllSkNTN6qaRxH1M4MVfo1aPBIUChIJZUpDUzeqmkcR9TODFX6NWjwaFAoSCcUDpZQ5qppHEXdAvb-4PMrjGhQKEgnjMToVrwWQRxHwjrz7tBmM7iIKDb11IRwVfusUBQ', 'types': ['intersection']}], 'status': 'OK'}","Bahnhofstrasse 4, 6340 Baar"
60,"{'results': [{'address_components': [{'long_name': '8', 'short_name': '8', 'types': ['street_number']}, {'long_name': 'Lindenstrasse', 'short_name': 'Lindenstrasse', 'types': ['route']}, {'long_name': 'Baar', 'short_name': 'Baar', 'types': ['locality', 'political']}, {'long_name': 'Zug', 'short_name': 'Zug', 'types': ['administrative_area_level_2', 'political']}, {'long_name': 'Zug', 'short_name': 'ZG', 'types': ['administrative_area_level_1', 'political']}, {'long_name': 'Switzerland', 'short_name': 'CH', 'types': ['country', 'political']}, {'long_name': '6340', 'short_name': '6340', 'types': ['postal_code']}], 'formatted_address': 'Lindenstrasse 8, 6340 Baar, Switzerland', 'geometry': {'location': {'lat': 47.18380699999999, 'lng': 8.5181258}, 'location_type': 'ROOFTOP', 'viewport': {'northeast': {'lat': 47.18515598029149, 'lng': 8.519474780291501}, 'southwest': {'lat': 47.1824580197085, 'lng': 8.516776819708499}}}, 'partial_match': True, 'place_id': 'ChIJjWZw-ESqmkcRX8hLN0yXkCQ', 'plus_code': {'compound_code': '5GM9+G7 Baar, Switzerland', 'global_code': '8FVC5GM9+G7'}, 'types': ['street_address']}], 'status': 'OK'}","Lindenstrasse 8, 6340 Baar"
61,"{'results': [{'address_components': [{'long_name': '13C', 'short_name': '13C', 'types': ['street_number']}, {'long_name': 'Industriestrasse', 'short_name': 'Industriestrasse', 'types': ['route']}, {'long_name': 'Zug', 'short_name': 'Zug', 'types': ['locality', 'political']}, {'long_name': 'Zug', 'short_name': 'Zug', 'types': ['administrative_area_level_2', 'political']}, {'long_name': 'Zug', 'short_name': 'ZG', 'types': ['administrative_area_level_1', 'political']}, {'long_name': 'Switzerland', 'short_name': 'CH', 'types': ['country', 'political']}, {'long_name': '6300', 'short_name': '6300', 'types': ['postal_code']}], 'formatted_address': 'Industriestrasse 13C, 6300 Zug, Switzerland', 'geometry': {'location': {'lat': 47.172532, 'lng': 8.518345799999999}, 'location_type': 'ROOFTOP', 'viewport': {'northeast': {'lat': 47.1738809802915, 'lng': 8.5196947802915}, 'southwest': {'lat': 47.1711830197085, 'lng': 8.516996819708496}}}, 'partial_match': True, 'place_id': 'ChIJk_NSHliqmkcRJtzlXc5_GBM', 'plus_code': {'compound_code': '5GF9+28 Zug, Switzerland', 'global_code': '8FVC5GF9+28'}, 'types': ['street_address']}], 'status': 'OK'}","Industriestrasse 13C, 6300 Zug"
62,"{'results': [{'address_components': [{'long_name': '5A', 'short_name': '5A', 'types': ['street_number']}, {'long_name': 'Ruessenstrasse', 'short_name': 'Ruessenstrasse', 'types': ['route']}, {'long_name': 'Baar', 'short_name': 'Baar', 'types': ['locality', 'political']}, {'long_name': 'Zug', 'short_name': 'Zug', 'types': ['administrative_area_level_2', 'political']}, {'long_name': 'Zug', 'short_name': 'ZG', 'types': ['administrative_area_level_1', 'political']}, {'long_name': 'Switzerland', 'short_name': 'CH', 'types': ['country', 'political']}, {'long_name': '6340', 'short_name': '6340', 'types': ['postal_code']}], 'formatted_address': 'Ruessenstrasse 5A, 6340 Baar, Switzerland', 'geometry': {'location': {'lat': 47.2128345, 'lng': 8.5625731}, 'location_type': 'ROOFTOP', 'viewport': {'northeast': {'lat': 47.2141834802915, 'lng': 8.563922080291503}, 'southwest': {'lat': 47.2114855197085, 'lng': 8.561224119708498}}}, 'partial_match': True, 'place_id': 'ChIJ5cKUzmapmkcRAU9NZ5caE7M', 'plus_code': {'compound_code': '6H77+42 Baar, Switzerland', 'global_code': '8FVC6H77+42'}, 'types': ['street_address']}], 'status': 'OK'}","Ruessenstrasse 5A, 6340 Baar"
63,"{'results': [{'address_components': [{'long_name': '9', 'short_name': '9', 'types': ['street_number']}, {'long_name': 'Bahnhofstrasse', 'short_name': 'Bahnhofstrasse', 'types': ['route']}, {'long_name': 'Zürich', 'short_name': 'Zürich', 'types': ['locality', 'political']}, {'long_name': 'Zürich', 'short_name': 'Zürich', 'types': ['administrative_area_level_2', 'political']}, {'long_name': 'Zürich', 'short_name': 'ZH', 'types': ['administrative_area_level_1', 'political']}, {'long_name': 'Switzerland', 'short_name': 'CH', 'types': ['country', 'political']}, {'long_name': '8001', 'short_name': '8001', 'types': ['postal_code']}], 'formatted_address': 'Bahnhofstrasse 9, 8001 Zürich, Switzerland', 'geometry': {'location': {'lat': 47.3681441, 'lng': 8.5393976}, 'location_type': 'ROOFTOP', 'viewport': {'northeast': {'lat': 47.36949308029151, 'lng': 8.540746580291502}, 'southwest': {'lat': 47.36679511970851, 'lng': 8.538048619708498}}}, 'partial_match': True, 'place_id': 'ChIJHVU_awAKkEcRuwzdNqWfn-M', 'plus_code': {'compound_code': '9G9Q+7Q Zürich, Switzerland', 'global_code': '8FVC9G9Q+7Q'}, 'types': ['street_address']}, {'address_components': [{'long_name': 'Baar', 'short_name': 'Baar', 'types': ['locality', 'political']}, {'long_name': 'Zug', 'short_name': 'Zug', 'types': ['administrative_area_level_2', 'political']}, {'long_name': 'Canton of Zug', 'short_name': 'ZG', 'types': ['administrative_area_level_1', 'political']}, {'long_name': 'Switzerland', 'short_name': 'CH', 'types': ['country', 'political']}], 'formatted_address': 'Baar, Switzerland', 'geometry': {'bounds': {'northeast': {'lat': 47.2231001, 'lng': 8.5777101}, 'southwest': {'lat': 47.1508099, 'lng': 8.49607}}, 'location': {'lat': 47.1953729, 'lng': 8.526087}, 'location_type': 'APPROXIMATE', 'viewport': {'northeast': {'lat': 47.2231001, 'lng': 8.5777101}, 'southwest': {'lat': 47.1508099, 'lng': 8.49607}}}, 'partial_match': True, 'place_id': 'ChIJD5CdDsurmkcRWvqmITv_G1E', 'types': ['locality', 'political']}], 'status': 'OK'}","Bahnhofstrasse 9, 6341 Baar"
64,"{'results': [{'address_components': [{'long_name': '17A', 'short_name': '17A', 'types': ['street_number']}, {'long_name': 'Blegistrasse', 'short_name': 'Blegistrasse', 'types': ['route']}, {'long_name': 'Baar', 'short_name': 'Baar', 'types': ['locality', 'political']}, {'long_name': 'Zug', 'short_name': 'Zug', 'types': ['administrative_area_level_2', 'political']}, {'long_name': 'Zug', 'short_name': 'ZG', 'types': ['administrative_area_level_1', 'political']}, {'long_name': 'Switzerland', 'short_name': 'CH', 'types': ['country', 'political']}, {'long_name': '6340', 'short_name': '6340', 'types': ['postal_code']}], 'formatted_address': 'Blegistrasse 17A, 6340 Baar, Switzerland', 'geometry': {'location': {'lat': 47.2154401, 'lng': 8.5682736}, 'location_type': 'ROOFTOP', 'viewport': {'northeast': {'lat': 47.2167890802915, 'lng': 8.569622580291503}, 'southwest': {'lat': 47.2140911197085, 'lng': 8.566924619708498}}}, 'partial_match': True, 'place_id': 'ChIJ409tZl2pmkcR_RSrazdhEHM', 'plus_code': {'compound_code': '6H89+58 Baar, Switzerland', 'global_code': '8FVC6H89+58'}, 'types': ['street_address']}], 'status': 'OK'}","Blegistrasse 17A, 6340 Baar"
65,"{'results': [{'address_components': [{'long_name': '13C', 'short_name': '13C', 'types': ['street_number']}, {'long_name': 'Industriestrasse', 'short_name': 'Industriestrasse', 'types': ['route']}, {'long_name': 'Zug', 'short_name': 'Zug', 'types': ['locality', 'political']}, {'long_name': 'Zug', 'short_name': 'Zug', 'types': ['administrative_area_level_2', 'political']}, {'long_name': 'Zug', 'short_name': 'ZG', 'types': ['administrative_area_level_1', 'political']}, {'long_name': 'Switzerland', 'short_name': 'CH', 'types': ['country', 'political']}, {'long_name': '6300', 'short_name': '6300', 'types': ['postal_code']}], 'formatted_address': 'Industriestrasse 13C, 6300 Zug, Switzerland', 'geometry': {'location': {'lat': 47.172532, 'lng': 8.518345799999999}, 'location_type': 'ROOFTOP', 'viewport': {'northeast': {'lat': 47.1738809802915, 'lng': 8.5196947802915}, 'southwest': {'lat': 47.1711830197085, 'lng': 8.516996819708496}}}, 'partial_match': True, 'place_id': 'ChIJk_NSHliqmkcRJtzlXc5_GBM', 'plus_code': {'compound_code': '5GF9+28 Zug, Switzerland', 'global_code': '8FVC5GF9+28'}, 'types': ['street_address']}], 'status': 'OK'}","Industriestrasse 13C, 6302 Zug"
66,"{'results': [{'address_components': [{'long_name': '1', 'short_name': '1', 'types': ['street_number']}, {'long_name': 'Weststrasse', 'short_name': 'Weststrasse', 'types': ['route']}, {'long_name': 'Baar', 'short_name': 'Baar', 'types': ['locality', 'political']}, {'long_name': 'Zug', 'short_name': 'Zug', 'types': ['administrative_area_level_2', 'political']}, {'long_name': 'Zug', 'short_name': 'ZG', 'types': ['administrative_area_level_1', 'political']}, {'long_name': 'Switzerland', 'short_name': 'CH', 'types': ['country', 'political']}, {'long_name': '6340', 'short_name': '6340', 'types': ['postal_code']}], 'formatted_address': 'Weststrasse 1, 6340 Baar, Switzerland', 'geometry': {'bounds': {'northeast': {'lat': 47.19654329999999, 'lng': 8.5212217}, 'southwest': {'lat': 47.1960167, 'lng': 8.5200785}}, 'location': {'lat': 47.196276, 'lng': 8.5206488}, 'location_type': 'ROOFTOP', 'viewport': {'northeast': {'lat': 47.1976289802915, 'lng': 8.5219990802915}, 'southwest': {'lat': 47.1949310197085, 'lng': 8.519301119708498}}}, 'partial_match': True, 'place_id': 'ChIJ2W-v5juqmkcRgJWevituDeM', 'types': ['premise']}], 'status': 'OK'}","Weststrasse 1, 6340 Baar"
67,"{'results': [{'address_components': [{'long_name': '10', 'short_name': '10', 'types': ['street_number']}, {'long_name': 'Baarermattstrasse', 'short_name': 'Baarermattstrasse', 'types': ['route']}, {'long_name': 'Zug', 'short_name': 'Zug', 'types': ['locality', 'political']}, {'long_name': 'Zug', 'short_name': 'Zug', 'types': ['administrative_area_level_2', 'political']}, {'long_name': 'Zug', 'short_name': 'ZG', 'types': ['administrative_area_level_1', 'political']}, {'long_name': 'Switzerland', 'short_name': 'CH', 'types': ['country', 'political']}, {'long_name': '6300', 'short_name': '6300', 'types': ['postal_code']}], 'formatted_address': 'Baarermattstrasse 10, 6300 Zug, Switzerland', 'geometry': {'bounds': {'northeast': {'lat': 47.17961769999999, 'lng': 8.5256118}, 'southwest': {'lat': 47.1792645, 'lng': 8.5250944}}, 'location': {'lat': 47.1793906, 'lng': 8.5252583}, 'location_type': 'ROOFTOP', 'viewport': {'northeast': {'lat': 47.18079008029149, 'lng': 8.526702080291502}, 'southwest': {'lat': 47.1780921197085, 'lng': 8.524004119708497}}}, 'partial_match': True, 'place_id': 'ChIJh_p7lFGqmkcRPIzl5zgNvpk', 'types': ['premise']}], 'status': 'OK'}","Baarermattstrasse 10, 6340 Baar"
68,"{'results': [{'address_components': [{'long_name': '76A', 'short_name': '76A', 'types': ['street_number']}, {'long_name': 'Zugerstrasse', 'short_name': 'Zugerstrasse', 'types': ['route']}, {'long_name': 'Baar', 'short_name': 'Baar', 'types': ['locality', 'political']}, {'long_name': 'Zug', 'short_name': 'Zug', 'types': ['administrative_area_level_2', 'political']}, {'long_name': 'Zug', 'short_name': 'ZG', 'types': ['administrative_area_level_1', 'political']}, {'long_name': 'Switzerland', 'short_name': 'CH', 'types': ['country', 'political']}, {'long_name': '6340', 'short_name': '6340', 'types': ['postal_code']}], 'formatted_address': 'Zugerstrasse 76A, 6340 Baar, Switzerland', 'geometry': {'location': {'lat': 47.1832585, 'lng': 8.519064799999999}, 'location_type': 'ROOFTOP', 'viewport': {'northeast': {'lat': 47.1846074802915, 'lng': 8.520413780291502}, 'southwest': {'lat': 47.1819095197085, 'lng': 8.517715819708497}}}, 'partial_match': True, 'place_id': 'ChIJ5VTsBEWqmkcR1377wWyKre8', 'plus_code': {'compound_code': '5GM9+8J Baar, Switzerland', 'global_code': '8FVC5GM9+8J'}, 'types': ['street_address']}], 'status': 'OK'}","Zugerstrasse 76A, 6340 Baar"
69,"{'results': [{'address_components': [{'long_name': '1', 'short_name': '1', 'types': ['street_number']}, {'long_name': 'Bahnhofstrasse', 'short_name': 'Bahnhofstrasse', 'types': ['route']}, {'long_name': 'Baar', 'short_name': 'Baar', 'types': ['locality', 'political']}, {'long_name': 'Zug', 'short_name': 'Zug', 'types': ['administrative_area_level_2', 'political']}, {'long_name': 'Zug', 'short_name': 'ZG', 'types': ['administrative_area_level_1', 'political']}, {'long_name': 'Switzerland', 'short_name': 'CH', 'types': ['country', 'political']}, {'long_name': '6340', 'short_name': '6340', 'types': ['postal_code']}], 'formatted_address': 'Bahnhofstrasse 1, 6340 Baar, Switzerland', 'geometry': {'location': {'lat': 47.1953053, 'lng': 8.5255637}, 'location_type': 'ROOFTOP', 'viewport': {'northeast': {'lat': 47.1966542802915, 'lng': 8.526912680291503}, 'southwest': {'lat': 47.1939563197085, 'lng': 8.524214719708498}}}, 'partial_match': True, 'place_id': 'ChIJ6U0OVDeqmkcRnICD1FUdzNE', 'plus_code': {'compound_code': '5GWG+46 Baar, Switzerland', 'global_code': '8FVC5GWG+46'}, 'types': ['street_address']}], 'status': 'OK'}","Bahnhofstrasse 1, 6340 Baar"
70,"{'results': [{'address_components': [{'long_name': '12A', 'short_name': '12A', 'types': ['street_number']}, {'long_name': 'Mühlegasse', 'short_name': 'Mühlegasse', 'types': ['route']}, {'long_name': 'Baar', 'short_name': 'Baar', 'types': ['locality', 'political']}, {'long_name': 'Zug', 'short_name': 'Zug', 'types': ['administrative_area_level_2', 'political']}, {'long_name': 'Zug', 'short_name': 'ZG', 'types': ['administrative_area_level_1', 'political']}, {'long_name': 'Switzerland', 'short_name': 'CH', 'types': ['country', 'political']}, {'long_name': '6340', 'short_name': '6340', 'types': ['postal_code']}], 'formatted_address': 'Mühlegasse 12A, 6340 Baar, Switzerland', 'geometry': {'location': {'lat': 47.1995482, 'lng': 8.5280249}, 'location_type': 'ROOFTOP', 'viewport': {'northeast': {'lat': 47.20089718029151, 'lng': 8.529373880291503}, 'southwest': {'lat': 47.19819921970851, 'lng': 8.526675919708499}}}, 'partial_match': True, 'place_id': 'ChIJ1QN9PTCqmkcRNVOfMeQB360', 'plus_code': {'compound_code': '5GXH+R6 Baar, Switzerland', 'global_code': '8FVC5GXH+R6'}, 'types': ['street_address']}], 'status': 'OK'}","Mühlegasse 12A, 6340 Baar"
71,"{'results': [{'address_components': [{'long_name': '195', 'short_name': '195', 'types': ['street_number']}, {'long_name': 'Zugerstrasse', 'short_name': 'Zugerstrasse', 'types': ['route']}, {'long_name': 'Unterägeri', 'short_name': 'Unterägeri', 'types': ['locality', 'political']}, {'long_name': 'Zug', 'short_name': 'Zug', 'types': ['administrative_area_level_2', 'political']}, {'long_name': 'Zug', 'short_name': 'ZG', 'types': ['administrative_area_level_1', 'political']}, {'long_name': 'Switzerland', 'short_name': 'CH', 'types': ['country', 'political']}, {'long_name': '6314', 'short_name': '6314', 'types': ['postal_code']}], 'formatted_address': 'Zugerstrasse 195, 6314 Unterägeri, Switzerland', 'geometry': {'location': {'lat': 47.1525436, 'lng': 8.5626472}, 'location_type': 'ROOFTOP', 'viewport': {'northeast': {'lat': 47.1538925802915, 'lng': 8.563996180291504}, 'southwest': {'lat': 47.15119461970851, 'lng': 8.5612982197085}}}, 'place_id': 'ChIJmUhQaWarmkcRIpppOSqFnuw', 'plus_code': {'compound_code': '5H37+23 Unterägeri, Switzerland', 'global_code': '8FVC5H37+23'}, 'types': ['establishment', 'furniture_store', 'general_contractor', 'home_goods_store', 'point_of_interest', 'store']}], 'status': 'OK'}","Zugerstrasse 195, 631401 Unterägeri"
72,"{'results': [{'address_components': [{'long_name': '8A', 'short_name': '8A', 'types': ['street_number']}, {'long_name': 'Zugerstrasse', 'short_name': 'Zugerstrasse', 'types': ['route']}, {'long_name': 'Baar', 'short_name': 'Baar', 'types': ['locality', 'political']}, {'long_name': 'Zug', 'short_name': 'Zug', 'types': ['administrative_area_level_2', 'political']}, {'long_name': 'Zug', 'short_name': 'ZG', 'types': ['administrative_area_level_1', 'political']}, {'long_name': 'Switzerland', 'short_name': 'CH', 'types': ['country', 'political']}, {'long_name': '6340', 'short_name': '6340', 'types': ['postal_code']}], 'formatted_address': 'Zugerstrasse 8A, 6340 Baar, Switzerland', 'geometry': {'bounds': {'northeast': {'lat': 47.1926345, 'lng': 8.5227755}, 'southwest': {'lat': 47.1922509, 'lng': 8.5220855}}, 'location': {'lat': 47.1925401, 'lng': 8.5223611}, 'location_type': 'ROOFTOP', 'viewport': {'northeast': {'lat': 47.1937916802915, 'lng': 8.523779480291502}, 'southwest': {'lat': 47.1910937197085, 'lng': 8.521081519708497}}}, 'partial_match': True, 'place_id': 'ChIJl8uIRjiqmkcRSrt5TiG7qlU', 'types': ['premise']}], 'status': 'OK'}","Zugerstrasse 8A, 6340 Baar"
73,"{'results': [{'address_components': [{'long_name': '8d', 'short_name': '8d', 'types': ['street_number']}, {'long_name': 'Baarermattstrasse', 'short_name': 'Baarermattstrasse', 'types': ['route']}, {'long_name': 'Baar', 'short_name': 'Baar', 'types': ['locality', 'political']}, {'long_name': 'Zug', 'short_name': 'Zug', 'types': ['administrative_area_level_2', 'political']}, {'long_name': 'Zug', 'short_name': 'ZG', 'types': ['administrative_area_level_1', 'political']}, {'long_name': 'Switzerland', 'short_name': 'CH', 'types': ['country', 'political']}, {'long_name': '6340', 'short_name': '6340', 'types': ['postal_code']}], 'formatted_address': 'Baarermattstrasse 8d, 6340 Baar, Switzerland', 'geometry': {'location': {'lat': 47.1798333, 'lng': 8.5254694}, 'location_type': 'ROOFTOP', 'viewport': {'northeast': {'lat': 47.18118228029149, 'lng': 8.526818380291502}, 'southwest': {'lat': 47.1784843197085, 'lng': 8.524120419708499}}}, 'partial_match': True, 'place_id': 'ChIJzZmkAk6qmkcR51CgffY23no', 'plus_code': {'compound_code': '5GHG+W5 Baar, Switzerland', 'global_code': '8FVC5GHG+W5'}, 'types': ['street_address']}], 'status': 'OK'}","Baarermattstrasse 8D, 6340 Baar"
74,"{'results': [{'address_components': [{'long_name': '1', 'short_name': '1', 'types': ['street_number']}, {'long_name': 'Hammerstrasse', 'short_name': 'Hammerstrasse', 'types': ['route']}, {'long_name': 'Steinhausen', 'short_name': 'Steinhausen', 'types': ['locality', 'political']}, {'long_name': 'Zug', 'short_name': 'Zug', 'types': ['administrative_area_level_2', 'political']}, {'long_name': 'Zug', 'short_name': 'ZG', 'types': ['administrative_area_level_1', 'political']}, {'long_name': 'Switzerland', 'short_name': 'CH', 'types': ['country', 'political']}, {'long_name': '6312', 'short_name': '6312', 'types': ['postal_code']}], 'formatted_address': 'Hammerstrasse 1, 6312 Steinhausen, Switzerland', 'geometry': {'bounds': {'northeast': {'lat': 47.1975232, 'lng': 8.484920899999999}, 'southwest': {'lat': 47.19723219999999, 'lng': 8.4845843}}, 'location': {'lat': 47.1974121, 'lng': 8.4848045}, 'location_type': 'ROOFTOP', 'viewport': {'northeast': {'lat': 47.1987266802915, 'lng': 8.486101580291502}, 'southwest': {'lat': 47.1960287197085, 'lng': 8.483403619708497}}}, 'partial_match': True, 'place_id': 'ChIJT0fDQaEAkEcRLoLsbhj1RHg', 'types': ['premise']}], 'status': 'OK'}","Hammerstrasse 1, 6312 Steinhausen"
75,"{'results': [{'address_components': [{'long_name': '11A', 'short_name': '11A', 'types': ['street_number']}, {'long_name': 'Blegistrasse', 'short_name': 'Blegistrasse', 'types': ['route']}, {'long_name': 'Baar', 'short_name': 'Baar', 'types': ['locality', 'political']}, {'long_name': 'Zug', 'short_name': 'Zug', 'types': ['administrative_area_level_2', 'political']}, {'long_name': 'Zug', 'short_name': 'ZG', 'types': ['administrative_area_level_1', 'political']}, {'long_name': 'Switzerland', 'short_name': 'CH', 'types': ['country', 'political']}, {'long_name': '6340', 'short_name': '6340', 'types': ['postal_code']}], 'formatted_address': 'Blegistrasse 11A, 6340 Baar, Switzerland', 'geometry': {'bounds': {'northeast': {'lat': 47.2161275, 'lng': 8.5705906}, 'southwest': {'lat': 47.2155677, 'lng': 8.5699882}}, 'location': {'lat': 47.2157866, 'lng': 8.5702742}, 'location_type': 'ROOFTOP', 'viewport': {'northeast': {'lat': 47.21719658029151, 'lng': 8.571638380291501}, 'southwest': {'lat': 47.21449861970851, 'lng': 8.568940419708497}}}, 'partial_match': True, 'place_id': 'ChIJx7GPI12pmkcR5FrxfkGnEA8', 'types': ['premise']}], 'status': 'OK'}","Blegistrasse 11A, 6340 Baar"
76,"{'results': [{'address_components': [{'long_name': '3', 'short_name': '3', 'types': ['street_number']}, {'long_name': 'Sankt Wendelin', 'short_name': 'St. Wendelin', 'types': ['route']}, {'long_name': 'Holzhäusern ZG', 'short_name': 'Holzhäusern ZG', 'types': ['locality', 'political']}, {'long_name': 'Zug', 'short_name': 'Zug', 'types': ['administrative_area_level_2', 'political']}, {'long_name': 'Zug', 'short_name': 'ZG', 'types': ['administrative_area_level_1', 'political']}, {'long_name': 'Switzerland', 'short_name': 'CH', 'types': ['country', 'political']}, {'long_name': '6343', 'short_name': '6343', 'types': ['postal_code']}], 'formatted_address': 'St. Wendelin 3, 6343 Holzhäusern ZG, Switzerland', 'geometry': {'bounds': {'northeast': {'lat': 47.1545228, 'lng': 8.4394834}, 'southwest': {'lat': 47.1537546, 'lng': 8.4386998}}, 'location': {'lat': 47.1540774, 'lng': 8.439041999999999}, 'location_type': 'ROOFTOP', 'viewport': {'northeast': {'lat': 47.1554876802915, 'lng': 8.440440580291503}, 'southwest': {'lat': 47.1527897197085, 'lng': 8.437742619708498}}}, 'partial_match': True, 'place_id': 'ChIJwfGGajcAkEcR6hLDP-ALqk4', 'types': ['premise']}], 'status': 'OK'}","St. Wendelin 3, 634304 Rotkreuz"
77,"{'results': [{'address_components': [{'long_name': '110A', 'short_name': '110A', 'types': ['street_number']}, {'long_name': 'Baarerstrasse', 'short_name': 'Baarerstrasse', 'types': ['route']}, {'long_name': 'Zug', 'short_name': 'Zug', 'types': ['locality', 'political']}, {'long_name': 'Zug', 'short_name': 'Zug', 'types': ['administrative_area_level_2', 'political']}, {'long_name': 'Zug', 'short_name': 'ZG', 'types': ['administrative_area_level_1', 'political']}, {'long_name': 'Switzerland', 'short_name': 'CH', 'types': ['country', 'political']}, {'long_name': '6300', 'short_name': '6300', 'types': ['postal_code']}], 'formatted_address': 'Baarerstrasse 110A, 6300 Zug, Switzerland', 'geometry': {'location': {'lat': 47.17982079999999, 'lng': 8.5192064}, 'location_type': 'ROOFTOP', 'viewport': {'northeast': {'lat': 47.18116978029149, 'lng': 8.520555380291503}, 'southwest': {'lat': 47.1784718197085, 'lng': 8.517857419708498}}}, 'partial_match': True, 'place_id': 'ChIJFW2OlFqqmkcRKeKFqHE-zWg', 'plus_code': {'compound_code': '5GH9+WM Zug, Switzerland', 'global_code': '8FVC5GH9+WM'}, 'types': ['street_address']}], 'status': 'OK'}","Baarerstrasse 110A, 6300 Zug"
78,"{'results': [{'address_components': [{'long_name': '1', 'short_name': '1', 'types': ['street_number']}, {'long_name': 'Oberneuhofstrasse', 'short_name': 'Oberneuhofstrasse', 'types': ['route']}, {'long_name': 'Baar', 'short_name': 'Baar', 'types': ['locality', 'political']}, {'long_name': 'Zug', 'short_name': 'Zug', 'types': ['administrative_area_level_2', 'political']}, {'long_name': 'Zug', 'short_name': 'ZG', 'types': ['administrative_area_level_1', 'political']}, {'long_name': 'Switzerland', 'short_name': 'CH', 'types': ['country', 'political']}, {'long_name': '6340', 'short_name': '6340', 'types': ['postal_code']}], 'formatted_address': 'Oberneuhofstrasse 1, 6340 Baar, Switzerland', 'geometry': {'location': {'lat': 47.1889268, 'lng': 8.515101699999999}, 'location_type': 'ROOFTOP', 'viewport': {'northeast': {'lat': 47.19027578029149, 'lng': 8.516450680291502}, 'southwest': {'lat': 47.18757781970849, 'lng': 8.513752719708497}}}, 'partial_match': True, 'place_id': 'ChIJ5RxpHUGqmkcRip-g0V0fJyI', 'plus_code': {'compound_code': '5GQ8+H2 Baar, Switzerland', 'global_code': '8FVC5GQ8+H2'}, 'types': ['street_address']}], 'status': 'OK'}","Oberneuhofstrasse 1, 6340 Baar"
79,"{'results': [{'address_components': [{'long_name': '11B', 'short_name': '11B', 'types': ['street_number']}, {'long_name': 'Blegistrasse', 'short_name': 'Blegistrasse', 'types': ['route']}, {'long_name': 'Baar', 'short_name': 'Baar', 'types': ['locality', 'political']}, {'long_name': 'Zug', 'short_name': 'Zug', 'types': ['administrative_area_level_2', 'political']}, {'long_name': 'Zug', 'short_name': 'ZG', 'types': ['administrative_area_level_1', 'political']}, {'long_name': 'Switzerland', 'short_name': 'CH', 'types': ['country', 'political']}, {'long_name': '6340', 'short_name': '6340', 'types': ['postal_code']}], 'formatted_address': 'Blegistrasse 11B, 6340 Baar, Switzerland', 'geometry': {'location': {'lat': 47.21575379999999, 'lng': 8.5703487}, 'location_type': 'ROOFTOP', 'viewport': {'northeast': {'lat': 47.2171027802915, 'lng': 8.571697680291503}, 'southwest': {'lat': 47.2144048197085, 'lng': 8.568999719708499}}}, 'partial_match': True, 'place_id': 'ChIJPeN8IV2pmkcRkGy-bxQ8fCM', 'plus_code': {'compound_code': '6H8C+84 Baar, Switzerland', 'global_code': '8FVC6H8C+84'}, 'types': ['street_address']}], 'status': 'OK'}","Blegistrasse 11B, 6341 Baar"
80,"{'results': [{'address_components': [{'long_name': '24', 'short_name': '24', 'types': ['street_number']}, {'long_name': 'Rothusstrasse', 'short_name': 'Rothusstrasse', 'types': ['route']}, {'long_name': 'Hünenberg', 'short_name': 'Hünenberg', 'types': ['locality', 'political']}, {'long_name': 'Zug', 'short_name': 'Zug', 'types': ['administrative_area_level_2', 'political']}, {'long_name': 'Zug', 'short_name': 'ZG', 'types': ['administrative_area_level_1', 'political']}, {'long_name': 'Switzerland', 'short_name': 'CH', 'types': ['country', 'political']}, {'long_name': '6331', 'short_name': '6331', 'types': ['postal_code']}], 'formatted_address': 'Rothusstrasse 24, 6331 Hünenberg, Switzerland', 'geometry': {'location': {'lat': 47.15955109999999, 'lng': 8.4440118}, 'location_type': 'ROOFTOP', 'viewport': {'northeast': {'lat': 47.1609000802915, 'lng': 8.445360780291502}, 'southwest': {'lat': 47.1582021197085, 'lng': 8.442662819708497}}}, 'place_id': 'ChIJlZddsUcAkEcRbi89k_cJKHU', 'plus_code': {'compound_code': '5C5V+RJ Hünenberg, Switzerland', 'global_code': '8FVC5C5V+RJ'}, 'types': ['clothing_store', 'establishment', 'point_of_interest', 'store']}], 'status': 'OK'}","Rothusstrasse 9, 6331 Hünenberg"
81,"{'results': [{'address_components': [{'long_name': 'Baarermatte', 'short_name': 'Baarermatte', 'types': ['route']}, {'long_name': 'Baar', 'short_name': 'Baar', 'types': ['locality', 'political']}, {'long_name': 'Zug', 'short_name': 'Zug', 'types': ['administrative_area_level_2', 'political']}, {'long_name': 'Zug', 'short_name': 'ZG', 'types': ['administrative_area_level_1', 'political']}, {'long_name': 'Switzerland', 'short_name': 'CH', 'types': ['country', 'political']}], 'formatted_address': 'Baarermatte, Baar, Switzerland', 'geometry': {'bounds': {'northeast': {'lat': 47.18209, 'lng': 8.5296971}, 'southwest': {'lat': 47.1805335, 'lng': 8.5275287}}, 'location': {'lat': 47.18119859999999, 'lng': 8.5283522}, 'location_type': 'GEOMETRIC_CENTER', 'viewport': {'northeast': {'lat': 47.1826607302915, 'lng': 8.5299618802915}, 'southwest': {'lat': 47.1799627697085, 'lng': 8.527263919708496}}}, 'partial_match': True, 'place_id': 'ChIJY7p27U2qmkcR3L2c0VeKx2Q', 'types': ['route']}], 'status': 'OK'}","Baarermatte , 6340 Baar"
82,"{'results': [{'address_components': [{'long_name': '5B', 'short_name': '5B', 'types': ['street_number']}, {'long_name': 'Ruessenstrasse', 'short_name': 'Ruessenstrasse', 'types': ['route']}, {'long_name': 'Baar', 'short_name': 'Baar', 'types': ['locality', 'political']}, {'long_name': 'Zug', 'short_name': 'Zug', 'types': ['administrative_area_level_2', 'political']}, {'long_name': 'Zug', 'short_name': 'ZG', 'types': ['administrative_area_level_1', 'political']}, {'long_name': 'Switzerland', 'short_name': 'CH', 'types': ['country', 'political']}, {'long_name': '6340', 'short_name': '6340', 'types': ['postal_code']}], 'formatted_address': 'Ruessenstrasse 5B, 6340 Baar, Switzerland', 'geometry': {'location': {'lat': 47.2129416, 'lng': 8.563455},