,output,Adresse
0,"{'results': [{'address_components': [{'long_name': '6', 'short_name': '6', 'types': ['street_number']}, {'long_name': 'Sonneggstrasse', 'short_name': 'Sonneggstrasse', 'types': ['route']}, {'long_name': 'Cham', 'short_name': 'Cham', 'types': ['locality', 'political']}, {'long_name': 'Zug', 'short_name': 'Zug', 'types': ['administrative_area_level_2', 'political']}, {'long_name': 'Zug', 'short_name': 'ZG', 'types': ['administrative_area_level_1', 'political']}, {'long_name': 'Switzerland', 'short_name': 'CH', 'types': ['country', 'political']}, {'long_name': '6330', 'short_name': '6330', 'types': ['postal_code']}], 'formatted_address': 'Sonneggstrasse 6, 6330 Cham, Switzerland', 'geometry': {'bounds': {'northeast': {'lat': 47.1841119, 'lng': 8.462064999999999}, 'southwest': {'lat': 47.1838843, 'lng': 8.4618533}}, 'location': {'lat': 47.18399160000001, 'lng': 8.4619129}, 'location_type': 'ROOFTOP', 'viewport': {'northeast': {'lat': 47.1853470802915, 'lng': 8.463308130291502}, 'southwest': {'lat': 47.1826491197085, 'lng': 8.460610169708497}}}, 'partial_match': True, 'place_id': 'ChIJldIpMY0AkEcRx_vG8J19zGc', 'types': ['premise']}], 'status': 'OK'}","Sonneggstrasse 6, 6330 Cham"
1,"{'results': [{'address_components': [{'long_name': '142A', 'short_name': '142A', 'types': ['street_number']}, {'long_name': 'Sihlbruggstrasse', 'short_name': 'Sihlbruggstrasse', 'types': ['route']}, {'long_name': 'Baar', 'short_name': 'Baar', 'types': ['locality', 'political']}, {'long_name': 'Zug', 'short_name': 'Zug', 'types': ['administrative_area_level_2', 'political']}, {'long_name': 'Zug', 'short_name': 'ZG', 'types': ['administrative_area_level_1', 'political']}, {'long_name': 'Switzerland', 'short_name': 'CH', 'types': ['country', 'political']}, {'long_name': '6340', 'short_name': '6340', 'types': ['postal_code']}], 'formatted_address': 'Sihlbruggstrasse 142A, 6340 Baar, Switzerland', 'geometry': {'location': {'lat': 47.2146309, 'lng': 8.571183399999999}, 'location_type': 'ROOFTOP', 'viewport': {'northeast': {'lat': 47.21597988029149, 'lng': 8.572532380291502}, 'southwest': {'lat': 47.2132819197085, 'lng': 8.569834419708497}}}, 'partial_match': True, 'place_id': 'ChIJ61zt8FypmkcRxeSTh5is3r4', 'plus_code': {'compound_code': '6H7C+VF Baar, Switzerland', 'global_code': '8FVC6H7C+VF'}, 'types': ['street_address']}], 'status': 'OK'}","Sihlbruggstrasse 142A, 6340 Baar"
2,"{'results': [{'address_components': [{'long_name': '4', 'short_name': '4', 'types': ['street_number']}, {'long_name': 'Sonneguet', 'short_name': 'Sonneguet', 'types': ['route']}, {'long_name': 'Hünenberg', 'short_name': 'Hünenberg', 'types': ['locality', 'political']}, {'long_name': 'Zug', 'short_name': 'Zug', 'types': ['administrative_area_level_2', 'political']}, {'long_name': 'Zug', 'short_name': 'ZG', 'types': ['administrative_area_level_1', 'political']}, {'long_name': 'Switzerland', 'short_name': 'CH', 'types': ['country', 'political']}, {'long_name': '6331', 'short_name': '6331', 'types': ['postal_code']}], 'formatted_address': 'Sonneguet 4, 6331 Hünenberg, Switzerland', 'geometry': {'location': {'lat': 47.1722547, 'lng': 8.4188371}, 'location_type': 'ROOFTOP', 'viewport': {'northeast': {'lat': 47.17360368029149, 'lng': 8.420186080291503}, 'southwest': {'lat': 47.1709057197085, 'lng': 8.417488119708498}}}, 'partial_match': True, 'place_id': 'ChIJqbP0sqUBkEcRPpnihcCeuZA', 'plus_code': {'compound_code': '5CC9+WG Hünenberg, Switzerland', 'global_code': '8FVC5CC9+WG'}, 'types': ['street_address']}], 'status': 'OK'}","Sonneguet 4, 6331 Hünenberg"
3,"{'results': [{'address_components': [{'long_name': '18B', 'short_name': '18B', 'types': ['street_number']}, {'long_name': 'Sonnenberg', 'short_name': 'Sonnenberg', 'types': ['route']}, {'long_name': 'Menzingen', 'short_name': 'Menzingen', 'types': ['locality', 'political']}, {'long_name': 'Zug', 'short_name': 'Zug', 'types': ['administrative_area_level_2', 'political']}, {'long_name': 'Zug', 'short_name': 'ZG', 'types': ['administrative_area_level_1', 'political']}, {'long_name': 'Switzerland', 'short_name': 'CH', 'types': ['country', 'political']}, {'long_name': '6313', 'short_name': '6313', 'types': ['postal_code']}], 'formatted_address': 'Sonnenberg 18B, 6313 Menzingen, Switzerland', 'geometry': {'location': {'lat': 47.1748224, 'lng': 8.5978754}, 'location_type': 'ROOFTOP', 'viewport': {'northeast': {'lat': 47.1761713802915, 'lng': 8.599224380291501}, 'southwest': {'lat': 47.1734734197085, 'lng': 8.596526419708498}}}, 'partial_match': True, 'place_id': 'ChIJndAqBmasmkcRvBwAlWNbGw4', 'plus_code': {'compound_code': '5HFX+W5 Menzingen, Switzerland', 'global_code': '8FVC5HFX+W5'}, 'types': ['street_address']}], 'status': 'OK'}","Sonnenberg 18B, 6313 Menzingen"
4,"{'results': [{'address_components': [{'long_name': '140', 'short_name': '140', 'types': ['street_number']}, {'long_name': 'Sihlbruggstrasse', 'short_name': 'Sihlbruggstrasse', 'types': ['route']}, {'long_name': 'Baar', 'short_name': 'Baar', 'types': ['locality', 'political']}, {'long_name': 'Zug', 'short_name': 'Zug', 'types': ['administrative_area_level_2', 'political']}, {'long_name': 'Zug', 'short_name': 'ZG', 'types': ['administrative_area_level_1', 'political']}, {'long_name': 'Switzerland', 'short_name': 'CH', 'types': ['country', 'political']}, {'long_name': '6340', 'short_name': '6340', 'types': ['postal_code']}], 'formatted_address': 'Sihlbruggstrasse 140, 6340 Baar, Switzerland', 'geometry': {'bounds': {'northeast': {'lat': 47.2147657, 'lng': 8.5707945}, 'southwest': {'lat': 47.2144135, 'lng': 8.5704544}}, 'location': {'lat': 47.2145705, 'lng': 8.5706164}, 'location_type': 'ROOFTOP', 'viewport': {'northeast': {'lat': 47.2159385802915, 'lng': 8.571973430291502}, 'southwest': {'lat': 47.2132406197085, 'lng': 8.569275469708499}}}, 'partial_match': True, 'place_id': 'ChIJCZF9_lypmkcR23wdP4TalgA', 'types': ['premise']}], 'status': 'OK'}","Sihlbruggstrasse 140, 6341 Baar"
5,"{'results': [{'address_components': [{'long_name': '2', 'short_name': '2', 'types': ['street_number']}, {'long_name': 'Zugerstrasse', 'short_name': 'Zugerstrasse', 'types': ['route']}, {'long_name': 'Steinhausen', 'short_name': 'Steinhausen', 'types': ['locality', 'political']}, {'long_name': 'Zug', 'short_name': 'Zug', 'types': ['administrative_area_level_2', 'political']}, {'long_name': 'Zug', 'short_name': 'ZG', 'types': ['administrative_area_level_1', 'political']}, {'long_name': 'Switzerland', 'short_name': 'CH', 'types': ['country', 'political']}, {'long_name': '6312', 'short_name': '6312', 'types': ['postal_code']}], 'formatted_address': 'Zugerstrasse 2, 6312 Steinhausen, Switzerland', 'geometry': {'location': {'lat': 47.1967003, 'lng': 8.4847055}, 'location_type': 'ROOFTOP', 'viewport': {'northeast': {'lat': 47.19804928029149, 'lng': 8.486054480291502}, 'southwest': {'lat': 47.19535131970849, 'lng': 8.483356519708497}}}, 'partial_match': True, 'place_id': 'ChIJt52TcqEAkEcRUQfpkn6YdBU', 'plus_code': {'compound_code': '5FWM+MV Steinhausen, Switzerland', 'global_code': '8FVC5FWM+MV'}, 'types': ['street_address']}], 'status': 'OK'}","Zugerstrasse 2, 6312 Steinhausen"
6,"{'results': [{'address_components': [{'long_name': '38', 'short_name': '38', 'types': ['street_number']}, {'long_name': 'Sonnenberg', 'short_name': 'Sonnenberg', 'types': ['route']}, {'long_name': 'Menzingen', 'short_name': 'Menzingen', 'types': ['locality', 'political']}, {'long_name': 'Zug', 'short_name': 'Zug', 'types': ['administrative_area_level_2', 'political']}, {'long_name': 'Zug', 'short_name': 'ZG', 'types': ['administrative_area_level_1', 'political']}, {'long_name': 'Switzerland', 'short_name': 'CH', 'types': ['country', 'political']}, {'long_name': '6313', 'short_name': '6313', 'types': ['postal_code']}], 'formatted_address': 'Sonnenberg 38, 6313 Menzingen, Switzerland', 'geometry': {'location': {'lat': 47.1749933, 'lng': 8.599253299999999}, 'location_type': 'ROOFTOP', 'viewport': {'northeast': {'lat': 47.17634228029149, 'lng': 8.6006022802915}, 'southwest': {'lat': 47.17364431970849, 'lng': 8.597904319708496}}}, 'partial_match': True, 'place_id': 'ChIJr5ZUH2asmkcR9cnJ_EJ9NXc', 'plus_code': {'compound_code': '5HFX+XP Menzingen, Switzerland', 'global_code': '8FVC5HFX+XP'}, 'types': ['street_address']}], 'status': 'OK'}","Sonnenberg 38, 6313 Menzingen"
7,"{'results': [{'address_components': [{'long_name': '42', 'short_name': '42', 'types': ['street_number']}, {'long_name': 'Sonnenberg', 'short_name': 'Sonnenberg', 'types': ['route']}, {'long_name': 'Menzingen', 'short_name': 'Menzingen', 'types': ['locality', 'political']}, {'long_name': 'Zug', 'short_name': 'Zug', 'types': ['administrative_area_level_2', 'political']}, {'long_name': 'Zug', 'short_name': 'ZG', 'types': ['administrative_area_level_1', 'political']}, {'long_name': 'Switzerland', 'short_name': 'CH', 'types': ['country', 'political']}, {'long_name': '6313', 'short_name': '6313', 'types': ['postal_code']}], 'formatted_address': 'Sonnenberg 42, 6313 Menzingen, Switzerland', 'geometry': {'location': {'lat': 47.174541, 'lng': 8.599507299999999}, 'location_type': 'ROOFTOP', 'viewport': {'northeast': {'lat': 47.17588998029149, 'lng': 8.600856280291502}, 'southwest': {'lat': 47.17319201970849, 'lng': 8.598158319708498}}}, 'partial_match': True, 'place_id': 'ChIJ9eqCPGasmkcRxST8gJsuAcg', 'plus_code': {'compound_code': '5HFX+RR Menzingen, Switzerland', 'global_code': '8FVC5HFX+RR'}, 'types': ['street_address']}], 'status': 'OK'}","Sonnenberg 42, 6313 Menzingen"
8,"{'results': [{'address_components': [{'long_name': '9', 'short_name': '9', 'types': ['street_number']}, {'long_name': 'Sonnhalde', 'short_name': 'Sonnhalde', 'types': ['route']}, {'long_name': 'Edlibach', 'short_name': 'Edlibach', 'types': ['locality', 'political']}, {'long_name': 'Zug', 'short_name': 'Zug', 'types': ['administrative_area_level_2', 'political']}, {'long_name': 'Zug', 'short_name': 'ZG', 'types': ['administrative_area_level_1', 'political']}, {'long_name': 'Switzerland', 'short_name': 'CH', 'types': ['country', 'political']}, {'long_name': '6313', 'short_name': '6313', 'types': ['postal_code']}], 'formatted_address': 'Sonnhalde 9, 6313 Edlibach, Switzerland', 'geometry': {'bounds': {'northeast': {'lat': 47.18143360000001, 'lng': 8.575427600000001}, 'southwest': {'lat': 47.1812774, 'lng': 8.5751862}}, 'location': {'lat': 47.18134149999999, 'lng': 8.5752565}, 'location_type': 'ROOFTOP', 'viewport': {'northeast': {'lat': 47.18270448029151, 'lng': 8.576655880291502}, 'southwest': {'lat': 47.18000651970851, 'lng': 8.573957919708498}}}, 'partial_match': True, 'place_id': 'ChIJE6yIso6rmkcRQLhhiP9flZQ', 'types': ['premise']}], 'status': 'OK'}","Sonnhalde 9, 6313 Edlibach"
9,"{'results': [{'address_components': [{'long_name': '26B', 'short_name': '26B', 'types': ['street_number']}, {'long_name': 'Sonnhaldenstrasse', 'short_name': 'Sonnhaldenstrasse', 'types': ['route']}, {'long_name': 'Hünenberg', 'short_name': 'Hünenberg', 'types': ['locality', 'political']}, {'long_name': 'Zug', 'short_name': 'Zug', 'types': ['administrative_area_level_2', 'political']}, {'long_name': 'Zug', 'short_name': 'ZG', 'types': ['administrative_area_level_1', 'political']}, {'long_name': 'Switzerland', 'short_name': 'CH', 'types': ['country', 'political']}, {'long_name': '6331', 'short_name': '6331', 'types': ['postal_code']}], 'formatted_address': 'Sonnhaldenstrasse 26B, 6331 Hünenberg, Switzerland', 'geometry': {'location': {'lat': 47.1770686, 'lng': 8.4239517}, 'location_type': 'ROOFTOP', 'viewport': {'northeast': {'lat': 47.1784175802915, 'lng': 8.425300680291501}, 'southwest': {'lat': 47.1757196197085, 'lng': 8.422602719708497}}}, 'partial_match': True, 'place_id': 'ChIJ06bpbagBkEcR7LYJryoQmvI', 'plus_code': {'compound_code': '5CGF+RH Hünenberg, Switzerland', 'global_code': '8FVC5CGF+RH'}, 'types': ['street_address']}], 'status': 'OK'}","Sonnhaldenstrasse 26B, 6331 Hünenberg"
10,"{'results': [{'address_components': [{'long_name': '18B', 'short_name': '18B', 'types': ['street_number']}, {'long_name': 'Zugerstrasse', 'short_name': 'Zugerstrasse', 'types': ['route']}, {'long_name': 'Walchwil', 'short_name': 'Walchwil', 'types': ['locality', 'political']}, {'long_name': 'Zug', 'short_name': 'Zug', 'types': ['administrative_area_level_2', 'political']}, {'long_name': 'Zug', 'short_name': 'ZG', 'types': ['administrative_area_level_1', 'political']}, {'long_name': 'Switzerland', 'short_name': 'CH', 'types': ['country', 'political']}, {'long_name': '6318', 'short_name': '6318', 'types': ['postal_code']}], 'formatted_address': 'Zugerstrasse 18B, 6318 Walchwil, Switzerland', 'geometry': {'location': {'lat': 47.1013366, 'lng': 8.5118174}, 'location_type': 'ROOFTOP', 'viewport': {'northeast': {'lat': 47.1026855802915, 'lng': 8.513166380291503}, 'southwest': {'lat': 47.0999876197085, 'lng': 8.510468419708499}}}, 'partial_match': True, 'place_id': 'ChIJffAMA_1UhUcRXlrbaeSEJ28', 'plus_code': {'compound_code': '4G26+GP Walchwil, Switzerland', 'global_code': '8FVC4G26+GP'}, 'types': ['street_address']}], 'status': 'OK'}","Zugerstrasse 18B, 6318 Walchwil"
11,"{'results': [{'address_components': [{'long_name': '58A', 'short_name': '58A', 'types': ['street_number']}, {'long_name': 'Zugerstrasse', 'short_name': 'Zugerstrasse', 'types': ['route']}, {'long_name': 'Cham', 'short_name': 'Cham', 'types': ['locality', 'political']}, {'long_name': 'Zug', 'short_name': 'Zug', 'types': ['administrative_area_level_2', 'political']}, {'long_name': 'Zug', 'short_name': 'ZG', 'types': ['administrative_area_level_1', 'political']}, {'long_name': 'Switzerland', 'short_name': 'CH', 'types': ['country', 'political']}, {'long_name': '6330', 'short_name': '6330', 'types': ['postal_code']}], 'formatted_address': 'Zugerstrasse 58A, 6330 Cham, Switzerland', 'geometry': {'location': {'lat': 47.18178899999999, 'lng': 8.4673806}, 'location_type': 'ROOFTOP', 'viewport': {'northeast': {'lat': 47.1831379802915, 'lng': 8.468729580291503}, 'southwest': {'lat': 47.1804400197085, 'lng': 8.466031619708499}}}, 'partial_match': True, 'place_id': 'ChIJhUUomo4AkEcRyFwNk83C658', 'plus_code': {'compound_code': '5FJ8+PX Cham, Switzerland', 'global_code': '8FVC5FJ8+PX'}, 'types': ['street_address']}], 'status': 'OK'}","Zugerstrasse 58A, 6330 Cham"
12,"{'results': [{'address_components': [{'long_name': '3', 'short_name': '3', 'types': ['street_number']}, {'long_name': 'Seefeldquai', 'short_name': 'Seefeldquai', 'types': ['route']}, {'long_name': 'Walchwil', 'short_name': 'Walchwil', 'types': ['locality', 'political']}, {'long_name': 'Zug', 'short_name': 'Zug', 'types': ['administrative_area_level_2', 'political']}, {'long_name': 'Zug', 'short_name': 'ZG', 'types': ['administrative_area_level_1', 'political']}, {'long_name': 'Switzerland', 'short_name': 'CH', 'types': ['country', 'political']}, {'long_name': '6318', 'short_name': '6318', 'types': ['postal_code']}], 'formatted_address': 'Seefeldquai 3, 6318 Walchwil, Switzerland', 'geometry': {'bounds': {'northeast': {'lat': 47.0958516, 'lng': 8.518228400000002}, 'southwest': {'lat': 47.0956875, 'lng': 8.5179904}}, 'location': {'lat': 47.0957677, 'lng': 8.518101399999999}, 'location_type': 'ROOFTOP', 'viewport': {'northeast': {'lat': 47.0971185302915, 'lng': 8.519458380291505}, 'southwest': {'lat': 47.0944205697085, 'lng': 8.5167604197085}}}, 'partial_match': True, 'place_id': 'ChIJq8QvyvlUhUcRFa32wPDYIN8', 'types': ['premise']}], 'status': 'OK'}","Seefeldquai 3, 6318 Walchwil"
13,"{'results': [{'address_components': [{'long_name': 'Allenwinden', 'short_name': 'Allenwinden', 'types': ['colloquial_area', 'political']}, {'long_name': 'Baar', 'short_name': 'Baar', 'types': ['locality', 'political']}, {'long_name': 'Zug', 'short_name': 'Zug', 'types': ['administrative_area_level_2', 'political']}, {'long_name': 'Zug', 'short_name': 'ZG', 'types': ['administrative_area_level_1', 'political']}, {'long_name': 'Switzerland', 'short_name': 'CH', 'types': ['country', 'political']}, {'long_name': '6319', 'short_name': '6319', 'types': ['postal_code']}], 'formatted_address': 'Allenwinden, 6319 Baar, Switzerland', 'geometry': {'location': {'lat': 47.1642535, 'lng': 8.5569483}, 'location_type': 'APPROXIMATE', 'viewport': {'northeast': {'lat': 47.17183929999999, 'lng': 8.5729557}, 'southwest': {'lat': 47.1566667, 'lng': 8.540940899999999}}}, 'partial_match': True, 'place_id': 'ChIJG7i7DXSrmkcR3BAXVTyXlDs', 'types': ['colloquial_area', 'political']}], 'status': 'OK'}","Sonnmattstrasse 3, 6319 Allenwinden"
14,"{'results': [{'address_components': [{'long_name': '58B', 'short_name': '58B', 'types': ['street_number']}, {'long_name': 'Zugerstrasse', 'short_name': 'Zugerstrasse', 'types': ['route']}, {'long_name': 'Cham', 'short_name': 'Cham', 'types': ['locality', 'political']}, {'long_name': 'Zug', 'short_name': 'Zug', 'types': ['administrative_area_level_2', 'political']}, {'long_name': 'Zug', 'short_name': 'ZG', 'types': ['administrative_area_level_1', 'political']}, {'long_name': 'Switzerland', 'short_name': 'CH', 'types': ['country', 'political']}, {'long_name': '6330', 'short_name': '6330', 'types': ['postal_code']}], 'formatted_address': 'Zugerstrasse 58B, 6330 Cham, Switzerland', 'geometry': {'location': {'lat': 47.1817973, 'lng': 8.4674599}, 'location_type': 'ROOFTOP', 'viewport': {'northeast': {'lat': 47.1831462802915, 'lng': 8.468808880291501}, 'southwest': {'lat': 47.1804483197085, 'lng': 8.466110919708496}}}, 'place_id': 'ChIJ6VEZmo4AkEcR0rnlz7VRZp4', 'plus_code': {'compound_code': '5FJ8+PX Cham, Switzerland', 'global_code': '8FVC5FJ8+PX'}, 'types': ['street_address']}], 'status': 'OK'}","Zugerstrasse 58B, 6330 Cham"
15,"{'results': [{'address_components': [{'long_name': 'Seefeld', 'short_name': 'Seefeld', 'types': ['locality', 'political']}, {'long_name': 'Innsbruck-Land District', 'short_name': 'Innsbruck-Land District', 'types': ['administrative_area_level_2', 'political']}, {'long_name': 'Tyrol', 'short_name': 'Tyrol', 'types': ['administrative_area_level_1', 'political']}, {'long_name': 'Austria', 'short_name': 'AT', 'types': ['country', 'political']}], 'formatted_address': 'Seefeld, Austria', 'geometry': {'bounds': {'northeast': {'lat': 47.36984, 'lng': 11.25716}, 'southwest': {'lat': 47.31932, 'lng': 11.1636999}}, 'location': {'lat': 47.3300017, 'lng': 11.1877742}, 'location_type': 'APPROXIMATE', 'viewport': {'northeast': {'lat': 47.36984, 'lng': 11.25716}, 'southwest': {'lat': 47.31932, 'lng': 11.1636999}}}, 'partial_match': True, 'place_id': 'ChIJORw1LwYRnUcR_DELmK6v64A', 'types': ['locality', 'political']}], 'status': 'OK'}","Seefeld 49, 634303 Risch"
16,"{'results': [{'address_components': [{'long_name': '4', 'short_name': '4', 'types': ['street_number']}, {'long_name': 'Zugerstrasse', 'short_name': 'Zugerstrasse', 'types': ['route']}, {'long_name': 'Unterägeri', 'short_name': 'Unterägeri', 'types': ['locality', 'political']}, {'long_name': 'Zug', 'short_name': 'Zug', 'types': ['administrative_area_level_2', 'political']}, {'long_name': 'Zug', 'short_name': 'ZG', 'types': ['administrative_area_level_1', 'political']}, {'long_name': 'Switzerland', 'short_name': 'CH', 'types': ['country', 'political']}, {'long_name': '6314', 'short_name': '6314', 'types': ['postal_code']}], 'formatted_address': 'Zugerstrasse 4, 6314 Unterägeri, Switzerland', 'geometry': {'location': {'lat': 47.1375165, 'lng': 8.583898699999999}, 'location_type': 'ROOFTOP', 'viewport': {'northeast': {'lat': 47.13886548029149, 'lng': 8.585247680291502}, 'southwest': {'lat': 47.13616751970849, 'lng': 8.582549719708497}}}, 'partial_match': True, 'place_id': 'ChIJT5Rb5WWtmkcRHwk-xZPx-MA', 'plus_code': {'compound_code': '4HQM+2H Unterägeri, Switzerland', 'global_code': '8FVC4HQM+2H'}, 'types': ['clothing_store', 'establishment', 'point_of_interest', 'store']}], 'status': 'OK'}","Zugerstrasse 58C, 6314 Unterägeri"
17,"{'results': [{'address_components': [{'long_name': '58D', 'short_name': '58D', 'types': ['street_number']}, {'long_name': 'Zugerstrasse', 'short_name': 'Zugerstrasse', 'types': ['route']}, {'long_name': 'Cham', 'short_name': 'Cham', 'types': ['locality', 'political']}, {'long_name': 'Zug', 'short_name': 'Zug', 'types': ['administrative_area_level_2', 'political']}, {'long_name': 'Zug', 'short_name': 'ZG', 'types': ['administrative_area_level_1', 'political']}, {'long_name': 'Switzerland', 'short_name': 'CH', 'types': ['country', 'political']}, {'long_name': '6330', 'short_name': '6330', 'types': ['postal_code']}], 'formatted_address': 'Zugerstrasse 58D, 6330 Cham, Switzerland', 'geometry': {'location': {'lat': 47.1818219, 'lng': 8.4677242}, 'location_type': 'ROOFTOP', 'viewport': {'northeast': {'lat': 47.1831708802915, 'lng': 8.469073180291502}, 'southwest': {'lat': 47.1804729197085, 'lng': 8.466375219708498}}}, 'place_id': 'ChIJh3LfkI4AkEcR7gLcuxB-6u0', 'plus_code': {'compound_code': '5FJ9+P3 Cham, Switzerland', 'global_code': '8FVC5FJ9+P3'}, 'types': ['street_address']}], 'status': 'OK'}","Zugerstrasse 58D, 6330 Cham"
18,"{'results': [{'address_components': [{'long_name': '12', 'short_name': '12', 'types': ['street_number']}, {'long_name': 'Sonnrain', 'short_name': 'Sonnrain', 'types': ['route']}, {'long_name': 'Baar', 'short_name': 'Baar', 'types': ['locality', 'political']}, {'long_name': 'Zug', 'short_name': 'Zug', 'types': ['administrative_area_level_2', 'political']}, {'long_name': 'Zug', 'short_name': 'ZG', 'types': ['administrative_area_level_1', 'political']}, {'long_name': 'Switzerland', 'short_name': 'CH', 'types': ['country', 'political']}, {'long_name': '6340', 'short_name': '6340', 'types': ['postal_code']}], 'formatted_address': 'Sonnrain 12, 6340 Baar, Switzerland', 'geometry': {'location': {'lat': 47.2014727, 'lng': 8.5118329}, 'location_type': 'ROOFTOP', 'viewport': {'northeast': {'lat': 47.20282168029151, 'lng': 8.513181880291501}, 'southwest': {'lat': 47.20012371970851, 'lng': 8.510483919708498}}}, 'partial_match': True, 'place_id': 'ChIJO_TRfxeqmkcRKjRLB7uA7UQ', 'plus_code': {'compound_code': '6G26+HP Baar, Switzerland', 'global_code': '8FVC6G26+HP'}, 'types': ['street_address']}], 'status': 'OK'}","Sonnrain 12, 6340 Baar"
19,"{'results': [{'address_components': [{'long_name': 'Seefeld', 'short_name': 'Seefeld', 'types': ['locality', 'political']}, {'long_name': 'Innsbruck-Land District', 'short_name': 'Innsbruck-Land District', 'types': ['administrative_area_level_2', 'political']}, {'long_name': 'Tyrol', 'short_name': 'Tyrol', 'types': ['administrative_area_level_1', 'political']}, {'long_name': 'Austria', 'short_name': 'AT', 'types': ['country', 'political']}], 'formatted_address': 'Seefeld, Austria', 'geometry': {'bounds': {'northeast': {'lat': 47.36984, 'lng': 11.25716}, 'southwest': {'lat': 47.31932, 'lng': 11.1636999}}, 'location': {'lat': 47.3300017, 'lng': 11.1877742}, 'location_type': 'APPROXIMATE', 'viewport': {'northeast': {'lat': 47.36984, 'lng': 11.25716}, 'southwest': {'lat': 47.31932, 'lng': 11.1636999}}}, 'partial_match': True, 'place_id': 'ChIJORw1LwYRnUcR_DELmK6v64A', 'types': ['locality', 'political']}, {'address_components': [{'long_name': 'Risch-Rotkreuz', 'short_name': 'Risch-Rotkreuz', 'types': ['locality', 'political']}, {'long_name': 'Zug', 'short_name': 'Zug', 'types': ['administrative_area_level_2', 'political']}, {'long_name': 'Canton of Zug', 'short_name': 'ZG', 'types': ['administrative_area_level_1', 'political']}, {'long_name': 'Switzerland', 'short_name': 'CH', 'types': ['country', 'political']}], 'formatted_address': 'Risch-Rotkreuz, Switzerland', 'geometry': {'bounds': {'northeast': {'lat': 47.1712601, 'lng': 8.48939}, 'southwest': {'lat': 47.11344, 'lng': 8.41188}}, 'location': {'lat': 47.1410511, 'lng': 8.429827399999999}, 'location_type': 'APPROXIMATE', 'viewport': {'northeast': {'lat': 47.1712601, 'lng': 8.48939}, 'southwest': {'lat': 47.11344, 'lng': 8.41188}}}, 'partial_match': True, 'place_id': 'ChIJDW6VvyEAkEcRHYFyU70fZIo', 'types': ['locality', 'political']}], 'status': 'OK'}","Seefeld 3, 634303 Rotkreuz"
20,"{'results': [{'address_components': [{'long_name': '8', 'short_name': '8', 'types': ['street_number']}, {'long_name': 'Seeblickweg', 'short_name': 'Seeblickweg', 'types': ['route']}, {'long_name': 'Buonas', 'short_name': 'Buonas', 'types': ['locality', 'political']}, {'long_name': 'Zug', 'short_name': 'Zug', 'types': ['administrative_area_level_2', 'political']}, {'long_name': 'Zug', 'short_name': 'ZG', 'types': ['administrative_area_level_1', 'political']}, {'long_name': 'Switzerland', 'short_name': 'CH', 'types': ['country', 'political']}, {'long_name': '6343', 'short_name': '6343', 'types': ['postal_code']}], 'formatted_address': 'Seeblickweg 8, 6343 Buonas, Switzerland', 'geometry': {'location': {'lat': 47.1412084, 'lng': 8.4554342}, 'location_type': 'ROOFTOP', 'viewport': {'northeast': {'lat': 47.1425573802915, 'lng': 8.456783180291502}, 'southwest': {'lat': 47.1398594197085, 'lng': 8.454085219708498}}}, 'partial_match': True, 'place_id': 'ChIJWdMHEBwAkEcRnZJyGCqjd0I', 'plus_code': {'compound_code': '4FR4+F5 Risch-Rotkreuz, Switzerland', 'global_code': '8FVC4FR4+F5'}, 'types': ['street_address']}, {'address_components': [{'long_name': 'California', 'short_name': 'CA', 'types': ['administrative_area_level_1', 'political']}, {'long_name': 'United States', 'short_name': 'US', 'types': ['country', 'political']}], 'formatted_address': 'California, USA', 'geometry': {'bounds': {'northeast': {'lat': 42.0095169, 'lng': -114.131211}, 'southwest': {'lat': 32.528832, 'lng': -124.482003}}, 'location': {'lat': 36.778261, 'lng': -119.4179324}, 'location_type': 'APPROXIMATE', 'viewport': {'northeast': {'lat': 42.0095169, 'lng': -114.131211}, 'southwest': {'lat': 32.528832, 'lng': -124.482003}}}, 'partial_match': True, 'place_id': 'ChIJPV4oX_65j4ARVW8IJ6IJUYs', 'types': ['administrative_area_level_1', 'political']}], 'status': 'OK'}","Seeblickweg 8, 634302 Buonas"
21,"{'results': [{'address_components': [{'long_name': '6', 'short_name': '6', 'types': ['street_number']}, {'long_name': 'Seeblickweg', 'short_name': 'Seeblickweg', 'types': ['route']}, {'long_name': 'Risch-Rotkreuz', 'short_name': 'Risch-Rotkreuz', 'types': ['locality', 'political']}, {'long_name': 'Zug', 'short_name': 'Zug', 'types': ['administrative_area_level_2', 'political']}, {'long_name': 'Zug', 'short_name': 'ZG', 'types': ['administrative_area_level_1', 'political']}, {'long_name': 'Switzerland', 'short_name': 'CH', 'types': ['country', 'political']}, {'long_name': '6343', 'short_name': '6343', 'types': ['postal_code']}], 'formatted_address': 'Seeblickweg 6, 6343 Risch-Rotkreuz, Switzerland', 'geometry': {'location': {'lat': 47.1413245, 'lng': 8.455763}, 'location_type': 'RANGE_INTERPOLATED', 'viewport': {'northeast': {'lat': 47.14267348029149, 'lng': 8.4571119802915}, 'southwest': {'lat': 47.1399755197085, 'lng': 8.454414019708496}}}, 'partial_match': True, 'place_id': 'Ei9TZWVibGlja3dlZyA2LCA2MzQzIFJpc2NoLVJvdGtyZXV6LCBTd2l0emVybGFuZCIaEhgKFAoSCTkwdfgbAJBHEbCrSE4StFWJEAY', 'types': ['street_address']}], 'status': 'OK'}","Seeblickweg 6, 6343 Buonas"
22,"{'results': [{'address_components': [{'long_name': '4', 'short_name': '4', 'types': ['street_number']}, {'long_name': 'Seeblickweg', 'short_name': 'Seeblickweg', 'types': ['route']}, {'long_name': 'Risch-Rotkreuz', 'short_name': 'Risch-Rotkreuz', 'types': ['locality', 'political']}, {'long_name': 'Zug', 'short_name': 'Zug', 'types': ['administrative_area_level_2', 'political']}, {'long_name': 'Zug', 'short_name': 'ZG', 'types': ['administrative_area_level_1', 'political']}, {'long_name': 'Switzerland', 'short_name': 'CH', 'types': ['country', 'political']}, {'long_name': '6343', 'short_name': '6343', 'types': ['postal_code']}], 'formatted_address': 'Seeblickweg 4, 6343 Risch-Rotkreuz, Switzerland', 'geometry': {'bounds': {'northeast': {'lat': 47.14166119999999, 'lng': 8.455439499999999}, 'southwest': {'lat': 47.1415147, 'lng': 8.4551833}}, 'location': {'lat': 47.1415798, 'lng': 8.4553213}, 'location_type': 'ROOFTOP', 'viewport': {'northeast': {'lat': 47.1429369302915, 'lng': 8.4566603802915}, 'southwest': {'lat': 47.14023896970851, 'lng': 8.453962419708496}}}, 'partial_match': True, 'place_id': 'ChIJ8_iEBhwAkEcRlUIBdDzaHpQ', 'types': ['premise']}], 'status': 'OK'}","Seeblickweg 4, 6343 Buonas"
23,"{'results': [{'address_components': [{'long_name': '2', 'short_name': '2', 'types': ['street_number']}, {'long_name': 'Sonnrain', 'short_name': 'Sonnrain', 'types': ['route']}, {'long_name': 'Baar', 'short_name': 'Baar', 'types': ['locality', 'political']}, {'long_name': 'Zug', 'short_name': 'Zug', 'types': ['administrative_area_level_2', 'political']}, {'long_name': 'Zug', 'short_name': 'ZG', 'types': ['administrative_area_level_1', 'political']}, {'long_name': 'Switzerland', 'short_name': 'CH', 'types': ['country', 'political']}, {'long_name': '6340', 'short_name': '6340', 'types': ['postal_code']}], 'formatted_address': 'Sonnrain 2, 6340 Baar, Switzerland', 'geometry': {'bounds': {'northeast': {'lat': 47.200333, 'lng': 8.5108623}, 'southwest': {'lat': 47.2001241, 'lng': 8.5105693}}, 'location': {'lat': 47.2002439, 'lng': 8.5106888}, 'location_type': 'ROOFTOP', 'viewport': {'northeast': {'lat': 47.2015775302915, 'lng': 8.512064780291503}, 'southwest': {'lat': 47.1988795697085, 'lng': 8.509366819708498}}}, 'partial_match': True, 'place_id': 'ChIJ28LzEheqmkcRBjG9yro9LYQ', 'types': ['premise']}], 'status': 'OK'}","Sonnrain 2, 6340 Baar"
24,"{'results': [{'address_components': [{'long_name': '58E', 'short_name': '58E', 'types': ['street_number']}, {'long_name': 'Zugerstrasse', 'short_name': 'Zugerstrasse', 'types': ['route']}, {'long_name': 'Cham', 'short_name': 'Cham', 'types': ['locality', 'political']}, {'long_name': 'Zug', 'short_name': 'Zug', 'types': ['administrative_area_level_2', 'political']}, {'long_name': 'Zug', 'short_name': 'ZG', 'types': ['administrative_area_level_1', 'political']}, {'long_name': 'Switzerland', 'short_name': 'CH', 'types': ['country', 'political']}, {'long_name': '6330', 'short_name': '6330', 'types': ['postal_code']}], 'formatted_address': 'Zugerstrasse 58E, 6330 Cham, Switzerland', 'geometry': {'location': {'lat': 47.1817735, 'lng': 8.467877999999999}, 'location_type': 'ROOFTOP', 'viewport': {'northeast': {'lat': 47.1831224802915, 'lng': 8.469226980291502}, 'southwest': {'lat': 47.1804245197085, 'lng': 8.466529019708497}}}, 'partial_match': True, 'place_id': 'ChIJpXEVkY4AkEcR-HjWipwTZ4M', 'plus_code': {'compound_code': '5FJ9+P5 Cham, Switzerland', 'global_code': '8FVC5FJ9+P5'}, 'types': ['street_address']}], 'status': 'OK'}","Zugerstrasse 58E, 6330 Cham"
25,"{'results': [{'address_components': [{'long_name': '3A', 'short_name': '3A', 'types': ['street_number']}, {'long_name': 'Sonnrain', 'short_name': 'Sonnrain', 'types': ['route']}, {'long_name': 'Baar', 'short_name': 'Baar', 'types': ['locality', 'political']}, {'long_name': 'Zug', 'short_name': 'Zug', 'types': ['administrative_area_level_2', 'political']}, {'long_name': 'Zug', 'short_name': 'ZG', 'types': ['administrative_area_level_1', 'political']}, {'long_name': 'Switzerland', 'short_name': 'CH', 'types': ['country', 'political']}, {'long_name': '6340', 'short_name': '6340', 'types': ['postal_code']}], 'formatted_address': 'Sonnrain 3A, 6340 Baar, Switzerland', 'geometry': {'location': {'lat': 47.2000943, 'lng': 8.511047399999999}, 'location_type': 'ROOFTOP', 'viewport': {'northeast': {'lat': 47.2014432802915, 'lng': 8.5123963802915}, 'southwest': {'lat': 47.1987453197085, 'lng': 8.509698419708496}}}, 'partial_match': True, 'place_id': 'ChIJNdM6DBeqmkcR4fO_ZX31OXQ', 'plus_code': {'compound_code': '6G26+2C Baar, Switzerland', 'global_code': '8FVC6G26+2C'}, 'types': ['street_address']}], 'status': 'OK'}","Sonnrain 3A, 6340 Baar"
26,"{'results': [{'address_components': [{'long_name': '58F', 'short_name': '58F', 'types': ['street_number']}, {'long_name': 'Zugerstrasse', 'short_name': 'Zugerstrasse', 'types': ['route']}, {'long_name': 'Cham', 'short_name': 'Cham', 'types': ['locality', 'political']}, {'long_name': 'Zug', 'short_name': 'Zug', 'types': ['administrative_area_level_2', 'political']}, {'long_name': 'Zug', 'short_name': 'ZG', 'types': ['administrative_area_level_1', 'political']}, {'long_name': 'Switzerland', 'short_name': 'CH', 'types': ['country', 'political']}, {'long_name': '6330', 'short_name': '6330', 'types': ['postal_code']}], 'formatted_address': 'Zugerstrasse 58F, 6330 Cham, Switzerland', 'geometry': {'location': {'lat': 47.1818381, 'lng': 8.4679225}, 'location_type': 'ROOFTOP', 'viewport': {'northeast': {'lat': 47.1831870802915, 'lng': 8.469271480291503}, 'southwest': {'lat': 47.1804891197085, 'lng': 8.466573519708499}}}, 'partial_match': True, 'place_id': 'ChIJj_9hkY4AkEcRLZqz03uBNJM', 'plus_code': {'compound_code': '5FJ9+P5 Cham, Switzerland', 'global_code': '8FVC5FJ9+P5'}, 'types': ['street_address']}], 'status': 'OK'}","Zugerstrasse 58F, 6330 Cham"
27,"{'results': [{'address_components': [{'long_name': '193', 'short_name': '193', 'types': ['street_number']}, {'long_name': 'Zugerstrasse', 'short_name': 'Zugerstrasse', 'types': ['route']}, {'long_name': 'Unterägeri', 'short_name': 'Unterägeri', 'types': ['locality', 'political']}, {'long_name': 'Zug', 'short_name': 'Zug', 'types': ['administrative_area_level_2', 'political']}, {'long_name': 'Zug', 'short_name': 'ZG', 'types': ['administrative_area_level_1', 'political']}, {'long_name': 'Switzerland', 'short_name': 'CH', 'types': ['country', 'political']}, {'long_name': '6314', 'short_name': '6314', 'types': ['postal_code']}], 'formatted_address': 'Zugerstrasse 193, 6314 Unterägeri, Switzerland', 'geometry': {'location': {'lat': 47.1527181, 'lng': 8.5622817}, 'location_type': 'ROOFTOP', 'viewport': {'northeast': {'lat': 47.1540670802915, 'lng': 8.563630680291503}, 'southwest': {'lat': 47.1513691197085, 'lng': 8.560932719708498}}}, 'partial_match': True, 'place_id': 'ChIJsVQtE2armkcRHsfaL7aWmYw', 'plus_code': {'compound_code': '5H36+3W Unterägeri, Switzerland', 'global_code': '8FVC5H36+3W'}, 'types': ['street_address']}], 'status': 'OK'}","Zugerstrasse 193, 631401 Unterägeri"
28,"{'results': [{'address_components': [{'long_name': '631302', 'short_name': '631302', 'types': ['postal_code']}, {'long_name': 'India', 'short_name': 'IN', 'types': ['country', 'political']}], 'formatted_address': '631302, India', 'geometry': {'bounds': {'northeast': {'lat': 13.1665311, 'lng': 79.42528480000001}, 'southwest': {'lat': 13.0677529, 'lng': 79.3031299}}, 'location': {'lat': 13.1033391, 'lng': 79.3690831}, 'location_type': 'APPROXIMATE', 'viewport': {'northeast': {'lat': 13.1665311, 'lng': 79.42528480000001}, 'southwest': {'lat': 13.0677529, 'lng': 79.3031299}}}, 'partial_match': True, 'place_id': 'ChIJp1wwJkdNrTsRKVYQ7tHkmsA', 'types': ['postal_code']}, {'address_components': [{'long_name': 'Edlibach', 'short_name': 'Edlibach', 'types': ['colloquial_area', 'political']}, {'long_name': 'Menzingen', 'short_name': 'Menzingen', 'types': ['locality', 'political']}, {'long_name': 'Zug', 'short_name': 'Zug', 'types': ['administrative_area_level_2', 'political']}, {'long_name': 'Zug', 'short_name': 'ZG', 'types': ['administrative_area_level_1', 'political']}, {'long_name': 'Switzerland', 'short_name': 'CH', 'types': ['country', 'political']}, {'long_name': '6313', 'short_name': '6313', 'types': ['postal_code']}], 'formatted_address': 'Edlibach, 6313 Menzingen, Switzerland', 'geometry': {'location': {'lat': 47.18118, 'lng': 8.5738}, 'location_type': 'APPROXIMATE', 'viewport': {'northeast': {'lat': 47.1887633, 'lng': 8.5898074}, 'southwest': {'lat': 47.1735956, 'lng': 8.557792599999999}}}, 'partial_match': True, 'place_id': 'ChIJcSMMmo6rmkcRdZXDTv54M-s', 'types': ['colloquial_area', 'political']}], 'status': 'OK'}","Sonnweidweg 4, 631302 Edlibach"
29,"{'results': [{'address_components': [{'long_name': '2', 'short_name': '2', 'types': ['street_number']}, {'long_name': 'Spiegelbergstrasse', 'short_name': 'Spiegelbergstrasse', 'types': ['route']}, {'long_name': 'Walchwil', 'short_name': 'Walchwil', 'types': ['locality', 'political']}, {'long_name': 'Zug', 'short_name': 'Zug', 'types': ['administrative_area_level_2', 'political']}, {'long_name': 'Zug', 'short_name': 'ZG', 'types': ['administrative_area_level_1', 'political']}, {'long_name': 'Switzerland', 'short_name': 'CH', 'types': ['country', 'political']}, {'long_name': '6318', 'short_name': '6318', 'types': ['postal_code']}], 'formatted_address': 'Spiegelbergstrasse 2, 6318 Walchwil, Switzerland', 'geometry': {'location': {'lat': 47.09943579999999, 'lng': 8.5182177}, 'location_type': 'ROOFTOP', 'viewport': {'northeast': {'lat': 47.1007847802915, 'lng': 8.5195666802915}, 'southwest': {'lat': 47.0980868197085, 'lng': 8.516868719708496}}}, 'partial_match': True, 'place_id': 'ChIJbxy4SPpUhUcRvals1HGyfIY', 'plus_code': {'compound_code': '3GX9+Q7 Walchwil, Switzerland', 'global_code': '8FVC3GX9+Q7'}, 'types': ['street_address']}], 'status': 'OK'}","Spiegelbergstrasse 2, 6318 Walchwil"
30,"{'results': [{'address_components': [{'long_name': '13', 'short_name': '13', 'types': ['street_number']}, {'long_name': 'Seckistrasse', 'short_name': 'Seckistrasse', 'types': ['route']}, {'long_name': 'Walchwil', 'short_name': 'Walchwil', 'types': ['locality', 'political']}, {'long_name': 'Zug', 'short_name': 'Zug', 'types': ['administrative_area_level_2', 'political']}, {'long_name': 'Zug', 'short_name': 'ZG', 'types': ['administrative_area_level_1', 'political']}, {'long_name': 'Switzerland', 'short_name': 'CH', 'types': ['country', 'political']}, {'long_name': '6318', 'short_name': '6318', 'types': ['postal_code']}], 'formatted_address': 'Seckistrasse 13, 6318 Walchwil, Switzerland', 'geometry': {'location': {'lat': 47.0962258, 'lng': 8.5170017}, 'location_type': 'ROOFTOP', 'viewport': {'northeast': {'lat': 47.0975747802915, 'lng': 8.518350680291501}, 'southwest': {'lat': 47.0948768197085, 'lng': 8.515652719708497}}}, 'partial_match': True, 'place_id': 'ChIJbQGOpflUhUcRv9hTzVXbEVA', 'plus_code': {'compound_code': '3GW8+FR Walchwil, Switzerland', 'global_code': '8FVC3GW8+FR'}, 'types': ['street_address']}], 'status': 'OK'}","Seckistrasse 13, 6318 Walchwil"
31,"{'results': [{'address_components': [{'long_name': '29A', 'short_name': '29A', 'types': ['street_number']}, {'long_name': 'Spiegelbergstrasse', 'short_name': 'Spiegelbergstrasse', 'types': ['route']}, {'long_name': 'Walchwil', 'short_name': 'Walchwil', 'types': ['locality', 'political']}, {'long_name': 'Zug', 'short_name': 'Zug', 'types': ['administrative_area_level_2', 'political']}, {'long_name': 'Zug', 'short_name': 'ZG', 'types': ['administrative_area_level_1', 'political']}, {'long_name': 'Switzerland', 'short_name': 'CH', 'types': ['country', 'political']}, {'long_name': '6318', 'short_name': '6318', 'types': ['postal_code']}], 'formatted_address': 'Spiegelbergstrasse 29A, 6318 Walchwil, Switzerland', 'geometry': {'location': {'lat': 47.0992387, 'lng': 8.519083199999999}, 'location_type': 'ROOFTOP', 'viewport': {'northeast': {'lat': 47.1005876802915, 'lng': 8.5204321802915}, 'southwest': {'lat': 47.0978897197085, 'lng': 8.517734219708496}}}, 'partial_match': True, 'place_id': 'ChIJH4eLavpUhUcRNJbrXa972zE', 'plus_code': {'compound_code': '3GX9+MJ Walchwil, Switzerland', 'global_code': '8FVC3GX9+MJ'}, 'types': ['street_address']}], 'status': 'OK'}","Spiegelbergstrasse 29A, 6318 Walchwil"
32,"{'results': [{'address_components': [{'long_name': '6314', 'short_name': '6314', 'types': ['postal_code']}, {'long_name': 'Unterägeri', 'short_name': 'Unterägeri', 'types': ['locality', 'political']}, {'long_name': 'Zug', 'short_name': 'Zug', 'types': ['administrative_area_level_2', 'political']}, {'long_name': 'Canton of Zug', 'short_name': 'ZG', 'types': ['administrative_area_level_1', 'political']}, {'long_name': 'Switzerland', 'short_name': 'CH', 'types': ['country', 'political']}], 'formatted_address': '6314 Unterägeri, Switzerland', 'geometry': {'bounds': {'northeast': {'lat': 47.1557372, 'lng': 8.6215646}, 'southwest': {'lat': 47.0839228, 'lng': 8.5416603}}, 'location': {'lat': 47.1226008, 'lng': 8.5818864}, 'location_type': 'APPROXIMATE', 'viewport': {'northeast': {'lat': 47.1557372, 'lng': 8.6215646}, 'southwest': {'lat': 47.0839228, 'lng': 8.5416603}}}, 'partial_match': True, 'place_id': 'ChIJ0-7rnE9ThUcRCW9SSHfqfdM', 'types': ['postal_code']}], 'status': 'OK'}","Schützenmatt 5, 6314 Unterägeri"
33,"{'results': [{'address_components': [{'long_name': '3', 'short_name': '3', 'types': ['street_number']}, {'long_name': 'Spiegelbergstrasse', 'short_name': 'Spiegelbergstrasse', 'types': ['route']}, {'long_name': 'Walchwil', 'short_name': 'Walchwil', 'types': ['locality', 'political']}, {'long_name': 'Zug', 'short_name': 'Zug', 'types': ['administrative_area_level_2', 'political']}, {'long_name': 'Zug', 'short_name': 'ZG', 'types': ['administrative_area_level_1', 'political']}, {'long_name': 'Switzerland', 'short_name': 'CH', 'types': ['country', 'political']}, {'long_name': '6318', 'short_name': '6318', 'types': ['postal_code']}], 'formatted_address': 'Spiegelbergstrasse 3, 6318 Walchwil, Switzerland', 'geometry': {'location': {'lat': 47.10024749999999, 'lng': 8.5179969}, 'location_type': 'ROOFTOP', 'viewport': {'northeast': {'lat': 47.1015964802915, 'lng': 8.519345880291501}, 'southwest': {'lat': 47.0988985197085, 'lng': 8.516647919708497}}}, 'partial_match': True, 'place_id': 'ChIJxatVVPpUhUcRipbl6m13pK4', 'plus_code': {'compound_code': '4G29+35 Walchwil, Switzerland', 'global_code': '8FVC4G29+35'}, 'types': ['street_address']}], 'status': 'OK'}","Spiegelbergstrasse 3, 6318 Walchwil"
34,"{'results': [{'address_components': [{'long_name': '31A', 'short_name': '31A', 'types': ['street_number']}, {'long_name': 'Spiegelbergstrasse', 'short_name': 'Spiegelbergstrasse', 'types': ['route']}, {'long_name': 'Walchwil', 'short_name': 'Walchwil', 'types': ['locality', 'political']}, {'long_name': 'Zug', 'short_name': 'Zug', 'types': ['administrative_area_level_2', 'political']}, {'long_name': 'Zug', 'short_name': 'ZG', 'types': ['administrative_area_level_1', 'political']}, {'long_name': 'Switzerland', 'short_name': 'CH', 'types': ['country', 'political']}, {'long_name': '6318', 'short_name': '6318', 'types': ['postal_code']}], 'formatted_address': 'Spiegelbergstrasse 31A, 6318 Walchwil, Switzerland', 'geometry': {'location': {'lat': 47.09903140000001, 'lng': 8.519131699999999}, 'location_type': 'ROOFTOP', 'viewport': {'northeast': {'lat': 47.10038038029151, 'lng': 8.520480680291502}, 'southwest': {'lat': 47.09768241970851, 'lng': 8.517782719708498}}}, 'partial_match': True, 'place_id': 'ChIJM4XfFPpUhUcRWudenrONqwc', 'plus_code': {'compound_code': '3GX9+JM Walchwil, Switzerland', 'global_code': '8FVC3GX9+JM'}, 'types': ['street_address']}], 'status': 'OK'}","Spiegelbergstrasse 31A, 6318 Walchwil"
35,"{'results': [{'address_components': [{'long_name': '6', 'short_name': '6', 'types': ['street_number']}, {'long_name': 'Zugerstrasse', 'short_name': 'Zugerstrasse', 'types': ['route']}, {'long_name': 'Baar', 'short_name': 'Baar', 'types': ['locality', 'political']}, {'long_name': 'Zug', 'short_name': 'Zug', 'types': ['administrative_area_level_2', 'political']}, {'long_name': 'Zug', 'short_name': 'ZG', 'types': ['administrative_area_level_1', 'political']}, {'long_name': 'Switzerland', 'short_name': 'CH', 'types': ['country', 'political']}, {'long_name': '6340', 'short_name': '6340', 'types': ['postal_code']}], 'formatted_address': 'Zugerstrasse 6, 6340 Baar, Switzerland', 'geometry': {'bounds': {'northeast': {'lat': 47.1928328, 'lng': 8.522910099999999}, 'southwest': {'lat': 47.1926223, 'lng': 8.522684}}, 'location': {'lat': 47.1927377, 'lng': 8.522798500000002}, 'location_type': 'ROOFTOP', 'viewport': {'northeast': {'lat': 47.1940765302915, 'lng': 8.524146030291503}, 'southwest': {'lat': 47.1913785697085, 'lng': 8.521448069708498}}}, 'partial_match': True, 'place_id': 'ChIJ14ZwSDiqmkcRN6pETx95JqM', 'types': ['premise']}], 'status': 'OK'}","Zugerstrasse 6, 6340 Baar"
36,"{'results': [{'address_components': [{'long_name': '18A', 'short_name': '18A', 'types': ['street_number']}, {'long_name': 'Schützenhausstrasse', 'short_name': 'Schützenhausstrasse', 'types': ['route']}, {'long_name': 'Cham', 'short_name': 'Cham', 'types': ['locality', 'political']}, {'long_name': 'Zug', 'short_name': 'Zug', 'types': ['administrative_area_level_2', 'political']}, {'long_name': 'Zug', 'short_name': 'ZG', 'types': ['administrative_area_level_1', 'political']}, {'long_name': 'Switzerland', 'short_name': 'CH', 'types': ['country', 'political']}, {'long_name': '6332', 'short_name': '6332', 'types': ['postal_code']}], 'formatted_address': 'Schützenhausstrasse 18A, 6332 Cham, Switzerland', 'geometry': {'location': {'lat': 47.20668449999999, 'lng': 8.4350969}, 'location_type': 'ROOFTOP', 'viewport': {'northeast': {'lat': 47.2080334802915, 'lng': 8.436445880291501}, 'southwest': {'lat': 47.2053355197085, 'lng': 8.433747919708496}}}, 'partial_match': True, 'place_id': 'ChIJuxvkgiUBkEcRc1yHcFMtcW0', 'plus_code': {'compound_code': '6C4P+M2 Cham, Switzerland', 'global_code': '8FVC6C4P+M2'}, 'types': ['street_address']}], 'status': 'OK'}","Schützenhausstrasse 18A, 6332 Hagendorn"
37,"{'results': [{'address_components': [{'long_name': '7', 'short_name': '7', 'types': ['street_number']}, {'long_name': 'Spiegelbergstrasse', 'short_name': 'Spiegelbergstrasse', 'types': ['route']}, {'long_name': 'Walchwil', 'short_name': 'Walchwil', 'types': ['locality', 'political']}, {'long_name': 'Zug', 'short_name': 'Zug', 'types': ['administrative_area_level_2', 'political']}, {'long_name': 'Zug', 'short_name': 'ZG', 'types': ['administrative_area_level_1', 'political']}, {'long_name': 'Switzerland', 'short_name': 'CH', 'types': ['country', 'political']}, {'long_name': '6318', 'short_name': '6318', 'types': ['postal_code']}], 'formatted_address': 'Spiegelbergstrasse 7, 6318 Walchwil, Switzerland', 'geometry': {'location': {'lat': 47.1002865, 'lng': 8.51863}, 'location_type': 'ROOFTOP', 'viewport': {'northeast': {'lat': 47.1016354802915, 'lng': 8.519978980291503}, 'southwest': {'lat': 47.0989375197085, 'lng': 8.517281019708498}}}, 'partial_match': True, 'place_id': 'ChIJj_Y9WPpUhUcR6copl91C1nA', 'plus_code': {'compound_code': '4G29+4F Walchwil, Switzerland', 'global_code': '8FVC4G29+4F'}, 'types': ['street_address']}], 'status': 'OK'}","Spiegelbergstrasse 7, 6318 Walchwil"
38,"{'results': [{'address_components': [{'long_name': '1', 'short_name': '1', 'types': ['street_number']}, {'long_name': 'Spielhof', 'short_name': 'Spielhof', 'types': ['route']}, {'long_name': 'Zug', 'short_name': 'Zug', 'types': ['locality', 'political']}, {'long_name': 'Zug', 'short_name': 'Zug', 'types': ['administrative_area_level_2', 'political']}, {'long_name': 'Zug', 'short_name': 'ZG', 'types': ['administrative_area_level_1', 'political']}, {'long_name': 'Switzerland', 'short_name': 'CH', 'types': ['country', 'political']}, {'long_name': '6317', 'short_name': '6317', 'types': ['postal_code']}], 'formatted_address': 'Spielhof 1, 6317 Oberwil bei Zug, Switzerland', 'geometry': {'location': {'lat': 47.1459643, 'lng': 8.5073288}, 'location_type': 'ROOFTOP', 'viewport': {'northeast': {'lat': 47.14731328029149, 'lng': 8.508677780291501}, 'southwest': {'lat': 47.14461531970849, 'lng': 8.505979819708497}}}, 'partial_match': True, 'place_id': 'ChIJ2Q33V8SqmkcRZYVxd7AiZ8Q', 'plus_code': {'compound_code': '4GW4+9W Zug, Switzerland', 'global_code': '8FVC4GW4+9W'}, 'types': ['street_address']}], 'status': 'OK'}","Spielhof 1, 6317 Oberwil b. Zug"
39,"{'results': [{'address_components': [{'long_name': 'Menzingen', 'short_name': 'Menzingen', 'types': ['locality', 'political']}, {'long_name': 'Zug', 'short_name': 'Zug', 'types': ['administrative_area_level_2', 'political']}, {'long_name': 'Canton of Zug', 'short_name': 'ZG', 'types': ['administrative_area_level_1', 'political']}, {'long_name': 'Switzerland', 'short_name': 'CH', 'types': ['country', 'political']}], 'formatted_address': 'Menzingen, Switzerland', 'geometry': {'bounds': {'northeast': {'lat': 47.2052, 'lng': 8.6657099}, 'southwest': {'lat': 47.14812000000001, 'lng': 8.55442}}, 'location': {'lat': 47.1778831, 'lng': 8.5912483}, 'location_type': 'APPROXIMATE', 'viewport': {'northeast': {'lat': 47.2052, 'lng': 8.6657099}, 'southwest': {'lat': 47.14812000000001, 'lng': 8.55442}}}, 'partial_match': True, 'place_id': 'ChIJUbFmpW-smkcR_M0Aawl__x8', 'types': ['locality', 'political']}], 'status': 'OK'}","Seehof , 631303 Menzingen"
40,"{'results': [{'address_components': [{'long_name': '20A', 'short_name': '20A', 'types': ['street_number']}, {'long_name': 'Seehofmatt', 'short_name': 'Seehofmatt', 'types': ['route']}, {'long_name': 'Unterägeri', 'short_name': 'Unterägeri', 'types': ['locality', 'political']}, {'long_name': 'Zug', 'short_name': 'Zug', 'types': ['administrative_area_level_2', 'political']}, {'long_name': 'Zug', 'short_name': 'ZG', 'types': ['administrative_area_level_1', 'political']}, {'long_name': 'Switzerland', 'short_name': 'CH', 'types': ['country', 'political']}, {'long_name': '6314', 'short_name': '6314', 'types': ['postal_code']}], 'formatted_address': 'Seehofmatt 20A, 6314 Unterägeri, Switzerland', 'geometry': {'location': {'lat': 47.1332037, 'lng': 8.5898317}, 'location_type': 'ROOFTOP', 'viewport': {'northeast': {'lat': 47.1345526802915, 'lng': 8.591180680291501}, 'southwest': {'lat': 47.1318547197085, 'lng': 8.588482719708496}}}, 'partial_match': True, 'place_id': 'ChIJHwn_PrasmkcRAkDEW9RXatc', 'plus_code': {'compound_code': '4HMQ+7W Unterägeri, Switzerland', 'global_code': '8FVC4HMQ+7W'}, 'types': ['street_address']}], 'status': 'OK'}","Seehofmatt 20A, 6314 Unterägeri"
41,"{'results': [{'address_components': [{'long_name': '33A', 'short_name': '33A', 'types': ['street_number']}, {'long_name': 'Sonnhaldenstrasse', 'short_name': 'Sonnhaldenstrasse', 'types': ['route']}, {'long_name': 'Hünenberg', 'short_name': 'Hünenberg', 'types': ['locality', 'political']}, {'long_name': 'Zug', 'short_name': 'Zug', 'types': ['administrative_area_level_2', 'political']}, {'long_name': 'Zug', 'short_name': 'ZG', 'types': ['administrative_area_level_1', 'political']}, {'long_name': 'Switzerland', 'short_name': 'CH', 'types': ['country', 'political']}, {'long_name': '6331', 'short_name': '6331', 'types': ['postal_code']}], 'formatted_address': 'Sonnhaldenstrasse 33A, 6331 Hünenberg, Switzerland', 'geometry': {'location': {'lat': 47.179655, 'lng': 8.4223501}, 'location_type': 'ROOFTOP', 'viewport': {'northeast': {'lat': 47.18100398029149, 'lng': 8.4236990802915}, 'southwest': {'lat': 47.17830601970849, 'lng': 8.421001119708496}}}, 'partial_match': True, 'place_id': 'ChIJxTIZPggBkEcRu4-DQQByjoI', 'plus_code': {'compound_code': '5CHC+VW Hünenberg, Switzerland', 'global_code': '8FVC5CHC+VW'}, 'types': ['street_address']}], 'status': 'OK'}","Sonnhaldenstrasse 33A, 6331 Hünenberg"
42,"{'results': [{'address_components': [{'long_name': '3', 'short_name': '3', 'types': ['street_number']}, {'long_name': 'Sonnmatt', 'short_name': 'Sonnmatt', 'types': ['route']}, {'long_name': 'Allenwinden', 'short_name': 'Allenwinden', 'types': ['locality', 'political']}, {'long_name': 'Zug', 'short_name': 'Zug', 'types': ['administrative_area_level_2', 'political']}, {'long_name': 'Zug', 'short_name': 'ZG', 'types': ['administrative_area_level_1', 'political']}, {'long_name': 'Switzerland', 'short_name': 'CH', 'types': ['country', 'political']}, {'long_name': '6319', 'short_name': '6319', 'types': ['postal_code']}], 'formatted_address': 'Sonnmatt 3, 6319 Allenwinden, Switzerland', 'geometry': {'bounds': {'northeast': {'lat': 47.1665984, 'lng': 8.5540706}, 'southwest': {'lat': 47.16639869999999, 'lng': 8.5538679}}, 'location': {'lat': 47.1665185, 'lng': 8.553952899999999}, 'location_type': 'ROOFTOP', 'viewport': {'northeast': {'lat': 47.1678475302915, 'lng': 8.555318230291503}, 'southwest': {'lat': 47.1651495697085, 'lng': 8.552620269708498}}}, 'partial_match': True, 'place_id': 'ChIJ21U1J3WrmkcRdy2U6cFzaVg', 'types': ['premise']}], 'status': 'OK'}","Sonnmatt 3, 6319 Allenwinden"
43,"{'results': [{'address_components': [{'long_name': '3', 'short_name': '3', 'types': ['street_number']}, {'long_name': 'Seestrasse', 'short_name': 'Seestrasse', 'types': ['route']}, {'long_name': 'Unterägeri', 'short_name': 'Unterägeri', 'types': ['locality', 'political']}, {'long_name': 'Zug', 'short_name': 'Zug', 'types': ['administrative_area_level_2', 'political']}, {'long_name': 'Zug', 'short_name': 'ZG', 'types': ['administrative_area_level_1', 'political']}, {'long_name': 'Switzerland', 'short_name': 'CH', 'types': ['country', 'political']}, {'long_name': '6314', 'short_name': '6314', 'types': ['postal_code']}], 'formatted_address': 'Seestrasse 3, 6314 Unterägeri, Switzerland', 'geometry': {'location': {'lat': 47.1376131, 'lng': 8.5849918}, 'location_type': 'ROOFTOP', 'viewport': {'northeast': {'lat': 47.13896208029151, 'lng': 8.586340780291502}, 'southwest': {'lat': 47.13626411970851, 'lng': 8.583642819708498}}}, 'place_id': 'ChIJ779IDbqsmkcRgRI-bKLM-Vk', 'plus_code': {'compound_code': '4HQM+2X Unterägeri, Switzerland', 'global_code': '8FVC4HQM+2X'}, 'types': ['establishment', 'florist', 'point_of_interest', 'store']}], 'status': 'OK'}","Seestrasse 3, 6314 Unterägeri"
44,"{'results': [{'address_components': [{'long_name': '16', 'short_name': '16', 'types': ['street_number']}, {'long_name': 'Seestrasse', 'short_name': 'Seestrasse', 'types': ['route']}, {'long_name': 'Oberägeri', 'short_name': 'Oberägeri', 'types': ['locality', 'political']}, {'long_name': 'Zug', 'short_name': 'Zug', 'types': ['administrative_area_level_2', 'political']}, {'long_name': 'Zug', 'short_name': 'ZG', 'types': ['administrative_area_level_1', 'political']}, {'long_name': 'Switzerland', 'short_name': 'CH', 'types': ['country', 'political']}, {'long_name': '6315', 'short_name': '6315', 'types': ['postal_code']}], 'formatted_address': 'Seestrasse 16, 6315 Oberägeri, Switzerland', 'geometry': {'location': {'lat': 47.1352384, 'lng': 8.609267299999999}, 'location_type': 'ROOFTOP', 'viewport': {'northeast': {'lat': 47.13658738029149, 'lng': 8.610616280291502}, 'southwest': {'lat': 47.1338894197085, 'lng': 8.607918319708498}}}, 'partial_match': True, 'place_id': 'ChIJaSIkqNCsmkcRq6TnE0mcL-o', 'plus_code': {'compound_code': '4JP5+3P Oberägeri, Switzerland', 'global_code': '8FVC4JP5+3P'}, 'types': ['street_address']}], 'status': 'OK'}","Seestrasse 16C, 6315 Oberägeri"
45,"{'results': [{'address_components': [{'long_name': '16', 'short_name': '16', 'types': ['street_number']}, {'long_name': 'Seestrasse', 'short_name': 'Seestrasse', 'types': ['route']}, {'long_name': 'Oberägeri', 'short_name': 'Oberägeri', 'types': ['locality', 'political']}, {'long_name': 'Zug', 'short_name': 'Zug', 'types': ['administrative_area_level_2', 'political']}, {'long_name': 'Zug', 'short_name': 'ZG', 'types': ['administrative_area_level_1', 'political']}, {'long_name': 'Switzerland', 'short_name': 'CH', 'types': ['country', 'political']}, {'long_name': '6315', 'short_name': '6315', 'types': ['postal_code']}], 'formatted_address': 'Seestrasse 16, 6315 Oberägeri, Switzerland', 'geometry': {'location': {'lat': 47.1352384, 'lng': 8.609267299999999}, 'location_type': 'ROOFTOP', 'viewport': {'northeast': {'lat': 47.13658738029149, 'lng': 8.610616280291502}, 'southwest': {'lat': 47.1338894197085, 'lng': 8.607918319708498}}}, 'partial_match': True, 'place_id': 'ChIJaSIkqNCsmkcRq6TnE0mcL-o', 'plus_code': {'compound_code': '4JP5+3P Oberägeri, Switzerland', 'global_code': '8FVC4JP5+3P'}, 'types': ['street_address']}], 'status': 'OK'}","Seestrasse 16B, 6315 Oberägeri"
46,"{'results': [{'address_components': [{'long_name': '41', 'short_name': '41', 'types': ['street_number']}, {'long_name': 'Sonnhaldenstrasse', 'short_name': 'Sonnhaldenstrasse', 'types': ['route']}, {'long_name': 'Hünenberg', 'short_name': 'Hünenberg', 'types': ['locality', 'political']}, {'long_name': 'Zug', 'short_name': 'Zug', 'types': ['administrative_area_level_2', 'political']}, {'long_name': 'Zug', 'short_name': 'ZG', 'types': ['administrative_area_level_1', 'political']}, {'long_name': 'Switzerland', 'short_name': 'CH', 'types': ['country', 'political']}, {'long_name': '6331', 'short_name': '6331', 'types': ['postal_code']}], 'formatted_address': 'Sonnhaldenstrasse 41, 6331 Hünenberg, Switzerland', 'geometry': {'location': {'lat': 47.18054710000001, 'lng': 8.4221686}, 'location_type': 'ROOFTOP', 'viewport': {'northeast': {'lat': 47.18189608029151, 'lng': 8.423517580291502}, 'southwest': {'lat': 47.17919811970851, 'lng': 8.420819619708498}}}, 'partial_match': True, 'place_id': 'ChIJmeNJWwgBkEcRw1xkTsn8woU', 'plus_code': {'compound_code': '5CJC+6V Hünenberg, Switzerland', 'global_code': '8FVC5CJC+6V'}, 'types': ['street_address']}], 'status': 'OK'}","Sonnhaldenstrasse 41, 6331 Hünenberg"
47,"{'results': [{'address_components': [{'long_name': '47', 'short_name': '47', 'types': ['street_number']}, {'long_name': 'Sonnhaldenstrasse', 'short_name': 'Sonnhaldenstrasse', 'types': ['route']}, {'long_name': 'Hünenberg', 'short_name': 'Hünenberg', 'types': ['locality', 'political']}, {'long_name': 'Zug', 'short_name': 'Zug', 'types': ['administrative_area_level_2', 'political']}, {'long_name': 'Zug', 'short_name': 'ZG', 'types': ['administrative_area_level_1', 'political']}, {'long_name': 'Switzerland', 'short_name': 'CH', 'types': ['country', 'political']}, {'long_name': '6331', 'short_name': '6331', 'types': ['postal_code']}], 'formatted_address': 'Sonnhaldenstrasse 47, 6331 Hünenberg, Switzerland', 'geometry': {'location': {'lat': 47.1801907, 'lng': 8.4217663}, 'location_type': 'ROOFTOP', 'viewport': {'northeast': {'lat': 47.18153968029149, 'lng': 8.423115280291501}, 'southwest': {'lat': 47.17884171970849, 'lng': 8.420417319708497}}}, 'partial_match': True, 'place_id': 'ChIJqdWmSAgBkEcRh4tfra8NRoY', 'plus_code': {'compound_code': '5CJC+3P Hünenberg, Switzerland', 'global_code': '8FVC5CJC+3P'}, 'types': ['street_address']}], 'status': 'OK'}","Sonnhaldenstrasse 47, 6331 Hünenberg"
48,"{'results': [{'address_components': [{'long_name': '1', 'short_name': '1', 'types': ['street_number']}, {'long_name': 'Seestrasse', 'short_name': 'Seestrasse', 'types': ['route']}, {'long_name': 'Unterägeri', 'short_name': 'Unterägeri', 'types': ['locality', 'political']}, {'long_name': 'Zug', 'short_name': 'Zug', 'types': ['administrative_area_level_2', 'political']}, {'long_name': 'Zug', 'short_name': 'ZG', 'types': ['administrative_area_level_1', 'political']}, {'long_name': 'Switzerland', 'short_name': 'CH', 'types': ['country', 'political']}, {'long_name': '6314', 'short_name': '6314', 'types': ['postal_code']}], 'formatted_address': 'Seestrasse 1, 6314 Unterägeri, Switzerland', 'geometry': {'location': {'lat': 47.1375818, 'lng': 8.5847184}, 'location_type': 'ROOFTOP', 'viewport': {'northeast': {'lat': 47.1389307802915, 'lng': 8.586067380291501}, 'southwest': {'lat': 47.1362328197085, 'lng': 8.583369419708497}}}, 'place_id': 'ChIJq5pVcrqsmkcRGH8_T5P07sc', 'plus_code': {'compound_code': '4HQM+2V Unterägeri, Switzerland', 'global_code': '8FVC4HQM+2V'}, 'types': ['establishment', 'food', 'point_of_interest', 'restaurant']}], 'status': 'OK'}","Seestrasse 1, 6314 Unterägeri"
49,"{'results': [{'address_components': [{'long_name': '4', 'short_name': '4', 'types': ['street_number']}, {'long_name': 'Seemattweg', 'short_name': 'Seemattweg', 'types': ['route']}, {'long_name': 'Oberägeri', 'short_name': 'Oberägeri', 'types': ['locality', 'political']}, {'long_name': 'Zug', 'short_name': 'Zug', 'types': ['administrative_area_level_2', 'political']}, {'long_name': 'Zug', 'short_name': 'ZG', 'types': ['administrative_area_level_1', 'political']}, {'long_name': 'Switzerland', 'short_name': 'CH', 'types': ['country', 'political']}, {'long_name': '6315', 'short_name': '6315', 'types': ['postal_code']}], 'formatted_address': 'Seemattweg 4, 6315 Oberägeri, Switzerland', 'geometry': {'location': {'lat': 47.1342936, 'lng': 8.6128191}, 'location_type': 'ROOFTOP', 'viewport': {'northeast': {'lat': 47.1356425802915, 'lng': 8.614168080291503}, 'southwest': {'lat': 47.1329446197085, 'lng': 8.611470119708498}}}, 'partial_match': True, 'place_id': 'ChIJ-bcfndesmkcRFlCNiBhOfI4', 'plus_code': {'compound_code': '4JM7+P4 Oberägeri, Switzerland', 'global_code': '8FVC4JM7+P4'}, 'types': ['street_address']}], 'status': 'OK'}","Seemattweg 4, 6315 Oberägeri"
50,"{'results': [{'address_components': [{'long_name': '2B', 'short_name': '2B', 'types': ['street_number']}, {'long_name': 'Seemattweg', 'short_name': 'Seemattweg', 'types': ['route']}, {'long_name': 'Oberägeri', 'short_name': 'Oberägeri', 'types': ['locality', 'political']}, {'long_name': 'Zug', 'short_name': 'Zug', 'types': ['administrative_area_level_2', 'political']}, {'long_name': 'Zug', 'short_name': 'ZG', 'types': ['administrative_area_level_1', 'political']}, {'long_name': 'Switzerland', 'short_name': 'CH', 'types': ['country', 'political']}, {'long_name': '6315', 'short_name': '6315', 'types': ['postal_code']}], 'formatted_address': 'Seemattweg 2B, 6315 Oberägeri, Switzerland', 'geometry': {'location': {'lat': 47.1341261, 'lng': 8.6124859}, 'location_type': 'ROOFTOP', 'viewport': {'northeast': {'lat': 47.1354750802915, 'lng': 8.613834880291503}, 'southwest': {'lat': 47.1327771197085, 'lng': 8.611136919708498}}}, 'partial_match': True, 'place_id': 'ChIJPdxydtesmkcRXTNJ-FDMRJU', 'plus_code': {'compound_code': '4JM6+MX Oberägeri, Switzerland', 'global_code': '8FVC4JM6+MX'}, 'types': ['street_address']}], 'status': 'OK'}","Seemattweg 2b, 6315 Oberägeri"
51,"{'results': [{'address_components': [{'long_name': '2A', 'short_name': '2A', 'types': ['street_number']}, {'long_name': 'Seemattweg', 'short_name': 'Seemattweg', 'types': ['route']}, {'long_name': 'Oberägeri', 'short_name': 'Oberägeri', 'types': ['locality', 'political']}, {'long_name': 'Zug', 'short_name': 'Zug', 'types': ['administrative_area_level_2', 'political']}, {'long_name': 'Zug', 'short_name': 'ZG', 'types': ['administrative_area_level_1', 'political']}, {'long_name': 'Switzerland', 'short_name': 'CH', 'types': ['country', 'political']}, {'long_name': '6315', 'short_name': '6315', 'types': ['postal_code']}], 'formatted_address': 'Seemattweg 2A, 6315 Oberägeri, Switzerland', 'geometry': {'location': {'lat': 47.134301, 'lng': 8.6124821}, 'location_type': 'ROOFTOP', 'viewport': {'northeast': {'lat': 47.1356499802915, 'lng': 8.613831080291503}, 'southwest': {'lat': 47.1329520197085, 'lng': 8.611133119708498}}}, 'partial_match': True, 'place_id': 'ChIJk8uld9esmkcR2aCfBPecQ1Y', 'plus_code': {'compound_code': '4JM6+PX Oberägeri, Switzerland', 'global_code': '8FVC4JM6+PX'}, 'types': ['street_address']}], 'status': 'OK'}","Seemattweg 2A, 6315 Oberägeri"
52,"{'results': [{'address_components': [{'long_name': '9', 'short_name': '9', 'types': ['street_number']}, {'long_name': 'Seemattstrasse', 'short_name': 'Seemattstrasse', 'types': ['route']}, {'long_name': 'Hünenberg See', 'short_name': 'Hünenberg See', 'types': ['locality', 'political']}, {'long_name': 'Zug', 'short_name': 'Zug', 'types': ['administrative_area_level_2', 'political']}, {'long_name': 'Zug', 'short_name': 'ZG', 'types': ['administrative_area_level_1', 'political']}, {'long_name': 'Switzerland', 'short_name': 'CH', 'types': ['country', 'political']}, {'long_name': '6333', 'short_name': '6333', 'types': ['postal_code']}], 'formatted_address': 'Seemattstrasse 9, 6333 Hünenberg See, Switzerland', 'geometry': {'location': {'lat': 47.1741817, 'lng': 8.4517737}, 'location_type': 'ROOFTOP', 'viewport': {'northeast': {'lat': 47.1755306802915, 'lng': 8.453122680291504}, 'southwest': {'lat': 47.1728327197085, 'lng': 8.450424719708499}}}, 'partial_match': True, 'place_id': 'ChIJt82h11gAkEcReTo4CDrjr70', 'plus_code': {'compound_code': '5FF2+MP Hünenberg, Switzerland', 'global_code': '8FVC5FF2+MP'}, 'types': ['street_address']}, {'address_components': [{'long_name': 'California', 'short_name': 'CA', 'types': ['administrative_area_level_1', 'political']}, {'long_name': 'United States', 'short_name': 'US', 'types': ['country', 'political']}], 'formatted_address': 'California, USA', 'geometry': {'bounds': {'northeast': {'lat': 42.0095169, 'lng': -114.131211}, 'southwest': {'lat': 32.528832, 'lng': -124.482003}}, 'location': {'lat': 36.778261, 'lng': -119.4179324}, 'location_type': 'APPROXIMATE', 'viewport': {'northeast': {'lat': 42.0095169, 'lng': -114.131211}, 'southwest': {'lat': 32.528832, 'lng': -124.482003}}}, 'partial_match': True, 'place_id': 'ChIJPV4oX_65j4ARVW8IJ6IJUYs', 'types': ['administrative_area_level_1', 'political']}], 'status': 'OK'}","Seemattstrasse 9, 6333 Hünenberg See"
53,"{'results': [{'address_components': [{'long_name': '6', 'short_name': '6', 'types': ['street_number']}, {'long_name': 'Seemattstrasse', 'short_name': 'Seemattstrasse', 'types': ['route']}, {'long_name': 'Hünenberg See', 'short_name': 'Hünenberg See', 'types': ['locality', 'political']}, {'long_name': 'Zug', 'short_name': 'Zug', 'types': ['administrative_area_level_2', 'political']}, {'long_name': 'Zug', 'short_name': 'ZG', 'types': ['administrative_area_level_1', 'political']}, {'long_name': 'Switzerland', 'short_name': 'CH', 'types': ['country', 'political']}, {'long_name': '6333', 'short_name': '6333', 'types': ['postal_code']}], 'formatted_address': 'Seemattstrasse 6, 6333 Hünenberg See, Switzerland', 'geometry': {'bounds': {'northeast': {'lat': 47.1734066, 'lng': 8.452295399999999}, 'southwest': {'lat': 47.17316599999999, 'lng': 8.4519869}}, 'location': {'lat': 47.1732844, 'lng': 8.452115800000001}, 'location_type': 'ROOFTOP', 'viewport': {'northeast': {'lat': 47.1746352802915, 'lng': 8.453490130291502}, 'southwest': {'lat': 47.1719373197085, 'lng': 8.450792169708498}}}, 'partial_match': True, 'place_id': 'ChIJW-HNMlkAkEcRfFhX2fEpt6I', 'types': ['premise']}, {'address_components': [{'long_name': 'California', 'short_name': 'CA', 'types': ['administrative_area_level_1', 'political']}, {'long_name': 'United States', 'short_name': 'US', 'types': ['country', 'political']}], 'formatted_address': 'California, USA', 'geometry': {'bounds': {'northeast': {'lat': 42.0095169, 'lng': -114.131211}, 'southwest': {'lat': 32.528832, 'lng': -124.482003}}, 'location': {'lat': 36.778261, 'lng': -119.4179324}, 'location_type': 'APPROXIMATE', 'viewport': {'northeast': {'lat': 42.0095169, 'lng': -114.131211}, 'southwest': {'lat': 32.528832, 'lng': -124.482003}}}, 'partial_match': True, 'place_id': 'ChIJPV4oX_65j4ARVW8IJ6IJUYs', 'types': ['administrative_area_level_1', 'political']}], 'status': 'OK'}","Seemattstrasse 6, 6333 Hünenberg See"
54,"{'results': [{'address_components': [{'long_name': '50A', 'short_name': '50A', 'types': ['street_number']}, {'long_name': 'Sonnhaldenstrasse', 'short_name': 'Sonnhaldenstrasse', 'types': ['route']}, {'long_name': 'Hünenberg', 'short_name': 'Hünenberg', 'types': ['locality', 'political']}, {'long_name': 'Zug', 'short_name': 'Zug', 'types': ['administrative_area_level_2', 'political']}, {'long_name': 'Zug', 'short_name': 'ZG', 'types': ['administrative_area_level_1', 'political']}, {'long_name': 'Switzerland', 'short_name': 'CH', 'types': ['country', 'political']}, {'long_name': '6331', 'short_name': '6331', 'types': ['postal_code']}], 'formatted_address': 'Sonnhaldenstrasse 50A, 6331 Hünenberg, Switzerland', 'geometry': {'location': {'lat': 47.1800125, 'lng': 8.4226206}, 'location_type': 'ROOFTOP', 'viewport': {'northeast': {'lat': 47.18136148029149, 'lng': 8.423969580291502}, 'southwest': {'lat': 47.1786635197085, 'lng': 8.421271619708497}}}, 'partial_match': True, 'place_id': 'ChIJV1T3aggBkEcR0cu2bcV3_ZY', 'plus_code': {'compound_code': '5CJF+22 Hünenberg, Switzerland', 'global_code': '8FVC5CJF+22'}, 'types': ['street_address']}], 'status': 'OK'}","Sonnhaldenstrasse 50A, 6331 Hünenberg"
55,"{'results': [{'address_components': [{'long_name': '3', 'short_name': '3', 'types': ['street_number']}, {'long_name': 'Seemattstrasse', 'short_name': 'Seemattstrasse', 'types': ['route']}, {'long_name': 'Hünenberg See', 'short_name': 'Hünenberg See', 'types': ['locality', 'political']}, {'long_name': 'Zug', 'short_name': 'Zug', 'types': ['administrative_area_level_2', 'political']}, {'long_name': 'Zug', 'short_name': 'ZG', 'types': ['administrative_area_level_1', 'political']}, {'long_name': 'Switzerland', 'short_name': 'CH', 'types': ['country', 'political']}, {'long_name': '6333', 'short_name': '6333', 'types': ['postal_code']}], 'formatted_address': 'Seemattstrasse 3, 6333 Hünenberg See, Switzerland', 'geometry': {'location': {'lat': 47.1738042, 'lng': 8.450789799999999}, 'location_type': 'ROOFTOP', 'viewport': {'northeast': {'lat': 47.1751531802915, 'lng': 8.4521387802915}, 'southwest': {'lat': 47.1724552197085, 'lng': 8.449440819708498}}}, 'partial_match': True, 'place_id': 'ChIJcUurGFkAkEcRpH0rB86l1E4', 'plus_code': {'compound_code': '5FF2+G8 Hünenberg, Switzerland', 'global_code': '8FVC5FF2+G8'}, 'types': ['street_address']}, {'address_components': [{'long_name': 'California', 'short_name': 'CA', 'types': ['administrative_area_level_1', 'political']}, {'long_name': 'United States', 'short_name': 'US', 'types': ['country', 'political']}], 'formatted_address': 'California, USA', 'geometry': {'bounds': {'northeast': {'lat': 42.0095169, 'lng': -114.131211}, 'southwest': {'lat': 32.528832, 'lng': -124.482003}}, 'location': {'lat': 36.778261, 'lng': -119.4179324}, 'location_type': 'APPROXIMATE', 'viewport': {'northeast': {'lat': 42.0095169, 'lng': -114.131211}, 'southwest': {'lat': 32.528832, 'lng': -124.482003}}}, 'partial_match': True, 'place_id': 'ChIJPV4oX_65j4ARVW8IJ6IJUYs', 'types': ['administrative_area_level_1', 'political']}], 'status': 'OK'}","Seemattstrasse 3, 6333 Hünenberg See"
56,"{'results': [{'address_components': [{'long_name': '27', 'short_name': '27', 'types': ['street_number']}, {'long_name': 'Seemattstrasse', 'short_name': 'Seemattstrasse', 'types': ['route']}, {'long_name': 'Hünenberg See', 'short_name': 'Hünenberg See', 'types': ['locality', 'political']}, {'long_name': 'Zug', 'short_name': 'Zug', 'types': ['administrative_area_level_2', 'political']}, {'long_name': 'Zug', 'short_name': 'ZG', 'types': ['administrative_area_level_1', 'political']}, {'long_name': 'Switzerland', 'short_name': 'CH', 'types': ['country', 'political']}, {'long_name': '6333', 'short_name': '6333', 'types': ['postal_code']}], 'formatted_address': 'Seemattstrasse 27, 6333 Hünenberg See, Switzerland', 'geometry': {'location': {'lat': 47.1746452, 'lng': 8.4513071}, 'location_type': 'ROOFTOP', 'viewport': {'northeast': {'lat': 47.1759941802915, 'lng': 8.452656080291503}, 'southwest': {'lat': 47.1732962197085, 'lng': 8.449958119708498}}}, 'partial_match': True, 'place_id': 'ChIJ-53F3FgAkEcRhmONr3rmI3Q', 'plus_code': {'compound_code': '5FF2+VG Hünenberg, Switzerland', 'global_code': '8FVC5FF2+VG'}, 'types': ['street_address']}, {'address_components': [{'long_name': 'California', 'short_name': 'CA', 'types': ['administrative_area_level_1', 'political']}, {'long_name': 'United States', 'short_name': 'US', 'types': ['country', 'political']}], 'formatted_address': 'California, USA', 'geometry': {'bounds': {'northeast': {'lat': 42.0095169, 'lng': -114.131211}, 'southwest': {'lat': 32.528832, 'lng': -124.482003}}, 'location': {'lat': 36.778261, 'lng': -119.4179324}, 'location_type': 'APPROXIMATE', 'viewport': {'northeast': {'lat': 42.0095169, 'lng': -114.131211}, 'southwest': {'lat': 32.528832, 'lng': -124.482003}}}, 'partial_match': True, 'place_id': 'ChIJPV4oX_65j4ARVW8IJ6IJUYs', 'types': ['administrative_area_level_1', 'political']}], 'status': 'OK'}","Seemattstrasse 27, 6333 Hünenberg See"
57,"{'results': [{'address_components': [{'long_name': '50B', 'short_name': '50B', 'types': ['street_number']}, {'long_name': 'Sonnhaldenstrasse', 'short_name': 'Sonnhaldenstrasse', 'types': ['route']}, {'long_name': 'Hünenberg', 'short_name': 'Hünenberg', 'types': ['locality', 'political']}, {'long_name': 'Zug', 'short_name': 'Zug', 'types': ['administrative_area_level_2', 'political']}, {'long_name': 'Zug', 'short_name': 'ZG', 'types': ['administrative_area_level_1', 'political']}, {'long_name': 'Switzerland', 'short_name': 'CH', 'types': ['country', 'political']}, {'long_name': '6331', 'short_name': '6331', 'types': ['postal_code']}], 'formatted_address': 'Sonnhaldenstrasse 50B, 6331 Hünenberg, Switzerland', 'geometry': {'location': {'lat': 47.1800935, 'lng': 8.4226089}, 'location_type': 'ROOFTOP', 'viewport': {'northeast': {'lat': 47.18144248029149, 'lng': 8.423957880291502}, 'southwest': {'lat': 47.1787445197085, 'lng': 8.421259919708497}}}, 'partial_match': True, 'place_id': 'ChIJxZ5BaggBkEcR2QhqekW10x0', 'plus_code': {'compound_code': '5CJF+22 Hünenberg, Switzerland', 'global_code': '8FVC5CJF+22'}, 'types': ['street_address']}], 'status': 'OK'}","Sonnhaldenstrasse 50B, 6331 Hünenberg"
58,"{'results': [{'address_components': [{'long_name': '23A', 'short_name': '23A', 'types': ['street_number']}, {'long_name': 'Seemattstrasse', 'short_name': 'Seemattstrasse', 'types': ['route']}, {'long_name': 'Hünenberg See', 'short_name': 'Hünenberg See', 'types': ['locality', 'political']}, {'long_name': 'Zug', 'short_name': 'Zug', 'types': ['administrative_area_level_2', 'political']}, {'long_name': 'Zug', 'short_name': 'ZG', 'types': ['administrative_area_level_1', 'political']}, {'long_name': 'Switzerland', 'short_name': 'CH', 'types': ['country', 'political']}, {'long_name': '6333', 'short_name': '6333', 'types': ['postal_code']}], 'formatted_address': 'Seemattstrasse 23A, 6333 Hünenberg See, Switzerland', 'geometry': {'location': {'lat': 47.1748772, 'lng': 8.451522599999999}, 'location_type': 'ROOFTOP', 'viewport': {'northeast': {'lat': 47.17622618029149, 'lng': 8.452871580291502}, 'southwest': {'lat': 47.1735282197085, 'lng': 8.450173619708497}}}, 'partial_match': True, 'place_id': 'ChIJL-t2xFgAkEcRz4StYpYFJsk', 'plus_code': {'compound_code': '5FF2+XJ Hünenberg, Switzerland', 'global_code': '8FVC5FF2+XJ'}, 'types': ['street_address']}, {'address_components': [{'long_name': 'California', 'short_name': 'CA', 'types': ['administrative_area_level_1', 'political']}, {'long_name': 'United States', 'short_name': 'US', 'types': ['country', 'political']}], 'formatted_address': 'California, USA', 'geometry': {'bounds': {'northeast': {'lat': 42.0095169, 'lng': -114.131211}, 'southwest': {'lat': 32.528832, 'lng': -124.482003}}, 'location': {'lat': 36.778261, 'lng': -119.4179324}, 'location_type': 'APPROXIMATE', 'viewport': {'northeast': {'lat': 42.0095169, 'lng': -114.131211}, 'southwest': {'lat': 32.528832, 'lng': -124.482003}}}, 'partial_match': True, 'place_id': 'ChIJPV4oX_65j4ARVW8IJ6IJUYs', 'types': ['administrative_area_level_1', 'political']}], 'status': 'OK'}","Seemattstrasse 23A, 6333 Hünenberg See"
59,"{'results': [{'address_components': [{'long_name': '57D', 'short_name': '57D', 'types': ['street_number']}, {'long_name': 'Sonnhaldenstrasse', 'short_name': 'Sonnhaldenstrasse', 'types': ['route']}, {'long_name': 'Hünenberg', 'short_name': 'Hünenberg', 'types': ['locality', 'political']}, {'long_name': 'Zug', 'short_name': 'Zug', 'types': ['administrative_area_level_2', 'political']}, {'long_name': 'Zug', 'short_name': 'ZG', 'types': ['administrative_area_level_1', 'political']}, {'long_name': 'Switzerland', 'short_name': 'CH', 'types': ['country', 'political']}, {'long_name': '6331', 'short_name': '6331', 'types': ['postal_code']}], 'formatted_address': 'Sonnhaldenstrasse 57D, 6331 Hünenberg, Switzerland', 'geometry': {'location': {'lat': 47.1796492, 'lng': 8.4219674}, 'location_type': 'ROOFTOP', 'viewport': {'northeast': {'lat': 47.1809981802915, 'lng': 8.423316380291503}, 'southwest': {'lat': 47.1783002197085, 'lng': 8.420618419708498}}}, 'partial_match': True, 'place_id': 'ChIJwZtROQgBkEcRPnoWpwj61oQ', 'plus_code': {'compound_code': '5CHC+VQ Hünenberg, Switzerland', 'global_code': '8FVC5CHC+VQ'}, 'types': ['street_address']}], 'status': 'OK'}","Sonnhaldenstrasse 57D, 6331 Hünenberg"
60,"{'results': [{'address_components': [{'long_name': '21B', 'short_name': '21B', 'types': ['street_number']}, {'long_name': 'Seemattstrasse', 'short_name': 'Seemattstrasse', 'types': ['route']}, {'long_name': 'Hünenberg See', 'short_name': 'Hünenberg See', 'types': ['locality', 'political']}, {'long_name': 'Zug', 'short_name': 'Zug', 'types': ['administrative_area_level_2', 'political']}, {'long_name': 'Zug', 'short_name': 'ZG', 'types': ['administrative_area_level_1', 'political']}, {'long_name': 'Switzerland', 'short_name': 'CH', 'types': ['country', 'political']}, {'long_name': '6333', 'short_name': '6333', 'types': ['postal_code']}], 'formatted_address': 'Seemattstrasse 21B, 6333 Hünenberg See, Switzerland', 'geometry': {'location': {'lat': 47.17474989999999, 'lng': 8.4516784}, 'location_type': 'ROOFTOP', 'viewport': {'northeast': {'lat': 47.1760988802915, 'lng': 8.453027380291502}, 'southwest': {'lat': 47.1734009197085, 'lng': 8.450329419708497}}}, 'partial_match': True, 'place_id': 'ChIJb8kexVgAkEcRwGg02egbDk4', 'plus_code': {'compound_code': '5FF2+VM Hünenberg, Switzerland', 'global_code': '8FVC5FF2+VM'}, 'types': ['street_address']}, {'address_components': [{'long_name': 'California', 'short_name': 'CA', 'types': ['administrative_area_level_1', 'political']}, {'long_name': 'United States', 'short_name': 'US', 'types': ['country', 'political']}], 'formatted_address': 'California, USA', 'geometry': {'bounds': {'northeast': {'lat': 42.0095169, 'lng': -114.131211}, 'southwest': {'lat': 32.528832, 'lng': -124.482003}}, 'location': {'lat': 36.778261, 'lng': -119.4179324}, 'location_type': 'APPROXIMATE', 'viewport': {'northeast': {'lat': 42.0095169, 'lng': -114.131211}, 'southwest': {'lat': 32.528832, 'lng': -124.482003}}}, 'partial_match': True, 'place_id': 'ChIJPV4oX_65j4ARVW8IJ6IJUYs', 'types': ['administrative_area_level_1', 'political']}], 'status': 'OK'}","Seemattstrasse 21B, 6333 Hünenberg See"
61,"{'results': [{'address_components': [{'long_name': '63', 'short_name': '63', 'types': ['street_number']}, {'long_name': 'Sonnhaldenstrasse', 'short_name': 'Sonnhaldenstrasse', 'types': ['route']}, {'long_name': 'Hünenberg', 'short_name': 'Hünenberg', 'types': ['locality', 'political']}, {'long_name': 'Zug', 'short_name': 'Zug', 'types': ['administrative_area_level_2', 'political']}, {'long_name': 'Zug', 'short_name': 'ZG', 'types': ['administrative_area_level_1', 'political']}, {'long_name': 'Switzerland', 'short_name': 'CH', 'types': ['country', 'political']}, {'long_name': '6331', 'short_name': '6331', 'types': ['postal_code']}], 'formatted_address': 'Sonnhaldenstrasse 63, 6331 Hünenberg, Switzerland', 'geometry': {'location': {'lat': 47.1798288, 'lng': 8.4215676}, 'location_type': 'RANGE_INTERPOLATED', 'viewport': {'northeast': {'lat': 47.18117778029149, 'lng': 8.422916580291501}, 'southwest': {'lat': 47.17847981970849, 'lng': 8.420218619708498}}}, 'partial_match': True, 'place_id': 'EjJTb25uaGFsZGVuc3RyYXNzZSA2MywgNjMzMSBIw7xuZW5iZXJnLCBTd2l0emVybGFuZCIaEhgKFAoSCUGvlE4IAZBHEYg1WKpE_2ukED8', 'types': ['street_address']}], 'status': 'OK'}","Sonnhaldenstrasse 63A, 6331 Hünenberg"
62,"{'results': [{'address_components': [{'long_name': '1', 'short_name': '1', 'types': ['street_number']}, {'long_name': 'Seemattstrasse', 'short_name': 'Seemattstrasse', 'types': ['route']}, {'long_name': 'Hünenberg See', 'short_name': 'Hünenberg See', 'types': ['locality', 'political']}, {'long_name': 'Zug', 'short_name': 'Zug', 'types': ['administrative_area_level_2', 'political']}, {'long_name': 'Zug', 'short_name': 'ZG', 'types': ['administrative_area_level_1', 'political']}, {'long_name': 'Switzerland', 'short_name': 'CH', 'types': ['country', 'political']}, {'long_name': '6333', 'short_name': '6333', 'types': ['postal_code']}], 'formatted_address': 'Seemattstrasse 1, 6333 Hünenberg See, Switzerland', 'geometry': {'location': {'lat': 47.1736374, 'lng': 8.451340799999999}, 'location_type': 'ROOFTOP', 'viewport': {'northeast': {'lat': 47.17498638029151, 'lng': 8.452689780291502}, 'southwest': {'lat': 47.17228841970851, 'lng': 8.449991819708497}}}, 'partial_match': True, 'place_id': 'ChIJ4U6sJVkAkEcRTfSAsXB4sVE', 'plus_code': {'compound_code': '5FF2+FG Hünenberg, Switzerland', 'global_code': '8FVC5FF2+FG'}, 'types': ['street_address']}, {'address_components': [{'long_name': 'California', 'short_name': 'CA', 'types': ['administrative_area_level_1', 'political']}, {'long_name': 'United States', 'short_name': 'US', 'types': ['country', 'political']}], 'formatted_address': 'California, USA', 'geometry': {'bounds': {'northeast': {'lat': 42.0095169, 'lng': -114.131211}, 'southwest': {'lat': 32.528832, 'lng': -124.482003}}, 'location': {'lat': 36.778261, 'lng': -119.4179324}, 'location_type': 'APPROXIMATE', 'viewport': {'northeast': {'lat': 42.0095169, 'lng': -114.131211}, 'southwest': {'lat': 32.528832, 'lng': -124.482003}}}, 'partial_match': True, 'place_id': 'ChIJPV4oX_65j4ARVW8IJ6IJUYs', 'types': ['administrative_area_level_1', 'political']}], 'status': 'OK'}","Seemattstrasse 1, 6333 Hünenberg See"
63,"{'results': [{'address_components': [{'long_name': '7', 'short_name': '7', 'types': ['street_number']}, {'long_name': 'Seematt', 'short_name': 'Seematt', 'types': ['route']}, {'long_name': 'Unterägeri', 'short_name': 'Unterägeri', 'types': ['locality', 'political']}, {'long_name': 'Zug', 'short_name': 'Zug', 'types': ['administrative_area_level_2', 'political']}, {'long_name': 'Zug', 'short_name': 'ZG', 'types': ['administrative_area_level_1', 'political']}, {'long_name': 'Switzerland', 'short_name': 'CH', 'types': ['country', 'political']}, {'long_name': '6314', 'short_name': '6314', 'types': ['postal_code']}], 'formatted_address': 'Seematt 7, 6314 Unterägeri, Switzerland', 'geometry': {'location': {'lat': 47.1357267, 'lng': 8.5876185}, 'location_type': 'ROOFTOP', 'viewport': {'northeast': {'lat': 47.1370756802915, 'lng': 8.588967480291501}, 'southwest': {'lat': 47.1343777197085, 'lng': 8.586269519708498}}}, 'partial_match': True, 'place_id': 'ChIJK4s8a7esmkcRuAbh5jV-fH4', 'plus_code': {'compound_code': '4HPQ+72 Unterägeri, Switzerland', 'global_code': '8FVC4HPQ+72'}, 'types': ['street_address']}], 'status': 'OK'}","Seematt 7, 6314 Unterägeri"
64,"{'results': [{'address_components': [{'long_name': '65', 'short_name': '65', 'types': ['street_number']}, {'long_name': 'Sonnhaldenstrasse', 'short_name': 'Sonnhaldenstrasse', 'types': ['route']}, {'long_name': 'Hünenberg', 'short_name': 'Hünenberg', 'types': ['locality', 'political']}, {'long_name': 'Zug', 'short_name': 'Zug', 'types': ['administrative_area_level_2', 'political']}, {'long_name': 'Zug', 'short_name': 'ZG', 'types': ['administrative_area_level_1', 'political']}, {'long_name': 'Switzerland', 'short_name': 'CH', 'types': ['country', 'political']}, {'long_name': '6331', 'short_name': '6331', 'types': ['postal_code']}], 'formatted_address': 'Sonnhaldenstrasse 65, 6331 Hünenberg, Switzerland', 'geometry': {'location': {'lat': 47.1818529, 'lng': 8.4218259}, 'location_type': 'RANGE_INTERPOLATED', 'viewport': {'northeast': {'lat': 47.1832018802915, 'lng': 8.423174880291503}, 'southwest': {'lat': 47.1805039197085, 'lng': 8.420476919708499}}}, 'partial_match': True, 'place_id': 'EjJTb25uaGFsZGVuc3RyYXNzZSA2NSwgNjMzMSBIw7xuZW5iZXJnLCBTd2l0emVybGFuZCIaEhgKFAoSCV-FKv8IAZBHEaCia1LFtKp6EEE', 'types': ['street_address']}], 'status': 'OK'}","Sonnhaldenstrasse 65C, 6331 Hünenberg"
65,"{'results': [{'address_components': [{'long_name': '9B', 'short_name': '9B', 'types': ['street_number']}, {'long_name': 'Seehofstrasse', 'short_name': 'Seehofstrasse', 'types': ['route']}, {'long_name': 'Cham', 'short_name': 'Cham', 'types': ['locality', 'political']}, {'long_name': 'Zug', 'short_name': 'Zug', 'types': ['administrative_area_level_2', 'political']}, {'long_name': 'Zug', 'short_name': 'ZG', 'types': ['administrative_area_level_1', 'political']}, {'long_name': 'Switzerland', 'short_name': 'CH', 'types': ['country', 'political']}, {'long_name': '6330', 'short_name': '6330', 'types': ['postal_code']}], 'formatted_address': 'Seehofstrasse 9B, 6330 Cham, Switzerland', 'geometry': {'location': {'lat': 47.1806618, 'lng': 8.461713099999999}, 'location_type': 'ROOFTOP', 'viewport': {'northeast': {'lat': 47.1820107802915, 'lng': 8.463062080291502}, 'southwest': {'lat': 47.1793128197085, 'lng': 8.460364119708498}}}, 'partial_match': True, 'place_id': 'ChIJ4a9_X4sAkEcRSkEkSoVfjtE', 'plus_code': {'compound_code': '5FJ6+7M Cham, Switzerland', 'global_code': '8FVC5FJ6+7M'}, 'types': ['street_address']}], 'status': 'OK'}","Seehofstrasse 9B, 6330 Cham"
66,"{'results': [{'address_components': [{'long_name': '9A', 'short_name': '9A', 'types': ['street_number']}, {'long_name': 'Seehofstrasse', 'short_name': 'Seehofstrasse', 'types': ['route']}, {'long_name': 'Cham', 'short_name': 'Cham', 'types': ['locality', 'political']}, {'long_name': 'Zug', 'short_name': 'Zug', 'types': ['administrative_area_level_2', 'political']}, {'long_name': 'Zug', 'short_name': 'ZG', 'types': ['administrative_area_level_1', 'political']}, {'long_name': 'Switzerland', 'short_name': 'CH', 'types': ['country', 'political']}, {'long_name': '6330', 'short_name': '6330', 'types': ['postal_code']}], 'formatted_address': 'Seehofstrasse 9A, 6330 Cham, Switzerland', 'geometry': {'location': {'lat': 47.1805864, 'lng': 8.462054}, 'location_type': 'ROOFTOP', 'viewport': {'northeast': {'lat': 47.1819353802915, 'lng': 8.463402980291502}, 'southwest': {'lat': 47.1792374197085, 'lng': 8.460705019708499}}}, 'partial_match': True, 'place_id': 'ChIJ4_4zYIsAkEcR237uHJ13YQE', 'plus_code': {'compound_code': '5FJ6+6R Cham, Switzerland', 'global_code': '8FVC5FJ6+6R'}, 'types': ['street_address']}], 'status': 'OK'}","Seehofstrasse 9A, 6330 Cham"
67,"{'results': [{'address_components': [{'long_name': '17', 'short_name': '17', 'types': ['street_number']}, {'long_name': 'Sonnmatt', 'short_name': 'Sonnmatt', 'types': ['route']}, {'long_name': 'Rotkreuz ZG', 'short_name': 'Rotkreuz ZG', 'types': ['locality', 'political']}, {'long_name': 'Zug', 'short_name': 'Zug', 'types': ['administrative_area_level_2', 'political']}, {'long_name': 'Zug', 'short_name': 'ZG', 'types': ['administrative_area_level_1', 'political']}, {'long_name': 'Switzerland', 'short_name': 'CH', 'types': ['country', 'political']}, {'long_name': '6343', 'short_name': '6343', 'types': ['postal_code']}], 'formatted_address': 'Sonnmatt 17, 6343 Rotkreuz ZG, Switzerland', 'geometry': {'bounds': {'northeast': {'lat': 47.144491, 'lng': 8.4305212}, 'southwest': {'lat': 47.144257, 'lng': 8.4301441}}, 'location': {'lat': 47.14436990000001, 'lng': 8.4303135}, 'location_type': 'ROOFTOP', 'viewport': {'northeast': {'lat': 47.1457229802915, 'lng': 8.431681630291502}, 'southwest': {'lat': 47.1430250197085, 'lng': 8.428983669708497}}}, 'partial_match': True, 'place_id': 'ChIJPWsbEiwAkEcRAjj7nAi2cCI', 'types': ['premise']}], 'status': 'OK'}","Sonnmatt 17, 6343 Risch"
68,"{'results': [{'address_components': [{'long_name': '4', 'short_name': '4', 'types': ['street_number']}, {'long_name': 'Seehofstrasse', 'short_name': 'Seehofstrasse', 'types': ['route']}, {'long_name': 'Unterägeri', 'short_name': 'Unterägeri', 'types': ['locality', 'political']}, {'long_name': 'Zug', 'short_name': 'Zug', 'types': ['administrative_area_level_2', 'political']}, {'long_name': 'Zug', 'short_name': 'ZG', 'types': ['administrative_area_level_1', 'political']}, {'long_name': 'Switzerland', 'short_name': 'CH', 'types': ['country', 'political']}, {'long_name': '6314', 'short_name': '6314', 'types': ['postal_code']}], 'formatted_address': 'Seehofstrasse 4, 6314 Unterägeri, Switzerland', 'geometry': {'location': {'lat': 47.1351515, 'lng': 8.5893595}, 'location_type': 'ROOFTOP', 'viewport': {'northeast': {'lat': 47.1365004802915, 'lng': 8.590708480291504}, 'southwest': {'lat': 47.1338025197085, 'lng': 8.588010519708499}}}, 'partial_match': True, 'place_id': 'ChIJzS6VpLesmkcRj595yHWiGY8', 'plus_code': {'compound_code': '4HPQ+3P Unterägeri, Switzerland', 'global_code': '8FVC4HPQ+3P'}, 'types': ['street_address']}], 'status': 'OK'}","Seehofstrasse 4, 6314 Unterägeri"
69,"{'results': [{'address_components': [{'long_name': '1', 'short_name': '1', 'types': ['street_number']}, {'long_name': 'Seehofstrasse', 'short_name': 'Seehofstrasse', 'types': ['route']}, {'long_name': 'Cham', 'short_name': 'Cham', 'types': ['locality', 'political']}, {'long_name': 'Zug', 'short_name': 'Zug', 'types': ['administrative_area_level_2', 'political']}, {'long_name': 'Zug', 'short_name': 'ZG', 'types': ['administrative_area_level_1', 'political']}, {'long_name': 'Switzerland', 'short_name': 'CH', 'types': ['country', 'political']}, {'long_name': '6330', 'short_name': '6330', 'types': ['postal_code']}], 'formatted_address': 'Seehofstrasse 1, 6330 Cham, Switzerland', 'geometry': {'location': {'lat': 47.1812614, 'lng': 8.461987299999999}, 'location_type': 'ROOFTOP', 'viewport': {'northeast': {'lat': 47.18261038029151, 'lng': 8.463336280291502}, 'southwest': {'lat': 47.17991241970851, 'lng': 8.460638319708497}}}, 'partial_match': True, 'place_id': 'ChIJY8vKoowAkEcRgWeOjvElkoA', 'plus_code': {'compound_code': '5FJ6+GQ Cham, Switzerland', 'global_code': '8FVC5FJ6+GQ'}, 'types': ['street_address']}], 'status': 'OK'}","Seehofstrasse 1, 6330 Cham"
70,"{'results': [{'address_components': [{'long_name': '4', 'short_name': '4', 'types': ['street_number']}, {'long_name': 'Schlattwäldli', 'short_name': 'Schlattwäldli', 'types': ['route']}, {'long_name': 'Hünenberg', 'short_name': 'Hünenberg', 'types': ['locality', 'political']}, {'long_name': 'Zug', 'short_name': 'Zug', 'types': ['administrative_area_level_2', 'political']}, {'long_name': 'Zug', 'short_name': 'ZG', 'types': ['administrative_area_level_1', 'political']}, {'long_name': 'Switzerland', 'short_name': 'CH', 'types': ['country', 'political']}, {'long_name': '6331', 'short_name': '6331', 'types': ['postal_code']}], 'formatted_address': 'Schlattwäldli 4, 6331 Hünenberg, Switzerland', 'geometry': {'location': {'lat': 47.1804065, 'lng': 8.4301613}, 'location_type': 'ROOFTOP', 'viewport': {'northeast': {'lat': 47.18175548029149, 'lng': 8.431510280291503}, 'southwest': {'lat': 47.17905751970849, 'lng': 8.428812319708499}}}, 'partial_match': True, 'place_id': 'ChIJR9Ar1QABkEcRdiK-SjK6BaE', 'plus_code': {'compound_code': '5CJJ+53 Hünenberg, Switzerland', 'global_code': '8FVC5CJJ+53'}, 'types': ['street_address']}], 'status': 'OK'}","Schlattwäldli 4, 6331 Hünenberg"
71,"{'results': [{'address_components': [{'long_name': '1', 'short_name': '1', 'types': ['street_number']}, {'long_name': 'Schlattwäldli', 'short_name': 'Schlattwäldli', 'types': ['route']}, {'long_name': 'Hünenberg', 'short_name': 'Hünenberg', 'types': ['locality', 'political']}, {'long_name': 'Zug', 'short_name': 'Zug', 'types': ['administrative_area_level_2', 'political']}, {'long_name': 'Zug', 'short_name': 'ZG', 'types': ['administrative_area_level_1', 'political']}, {'long_name': 'Switzerland', 'short_name': 'CH', 'types': ['country', 'political']}, {'long_name': '6331', 'short_name': '6331', 'types': ['postal_code']}], 'formatted_address': 'Schlattwäldli 1, 6331 Hünenberg, Switzerland', 'geometry': {'location': {'lat': 47.1797057, 'lng': 8.4300692}, 'location_type': 'ROOFTOP', 'viewport': {'northeast': {'lat': 47.1810546802915, 'lng': 8.431418180291502}, 'southwest': {'lat': 47.1783567197085, 'lng': 8.428720219708499}}}, 'partial_match': True, 'place_id': 'ChIJiZaSzAABkEcR8tt_N591JB8', 'plus_code': {'compound_code': '5CHJ+V2 Hünenberg, Switzerland', 'global_code': '8FVC5CHJ+V2'}, 'types': ['street_address']}], 'status': 'OK'}","Schlattwäldli 1, 6331 Hünenberg"
72,"{'results': [{'address_components': [{'long_name': '16', 'short_name': '16', 'types': ['street_number']}, {'long_name': 'Untere Rainstrasse', 'short_name': 'Untere Rainstrasse', 'types': ['route']}, {'long_name': 'Baar', 'short_name': 'Baar', 'types': ['locality', 'political']}, {'long_name': 'Zug', 'short_name': 'Zug', 'types': ['administrative_area_level_2', 'political']}, {'long_name': 'Zug', 'short_name': 'ZG', 'types': ['administrative_area_level_1', 'political']}, {'long_name': 'Switzerland', 'short_name': 'CH', 'types': ['country', 'political']}, {'long_name': '6340', 'short_name': '6340', 'types': ['postal_code']}], 'formatted_address': 'Untere Rainstrasse 16, 6340 Baar, Switzerland', 'geometry': {'location': {'lat': 47.1808303, 'lng': 8.5362166}, 'location_type': 'ROOFTOP', 'viewport': {'northeast': {'lat': 47.18217928029149, 'lng': 8.537565580291501}, 'southwest': {'lat': 47.1794813197085, 'lng': 8.534867619708496}}}, 'partial_match': True, 'place_id': 'ChIJv9ePYbKrmkcR5pxaPsGuqVA', 'plus_code': {'compound_code': '5GJP+8F Baar, Switzerland', 'global_code': '8FVC5GJP+8F'}, 'types': ['street_address']}], 'status': 'OK'}","Untere Rainstrasse 16, 6340 Baar"
73,"{'results': [{'address_components': [{'long_name': '33', 'short_name': '33', 'types': ['street_number']}, {'long_name': 'Tellenmattstrasse', 'short_name': 'Tellenmattstrasse', 'types': ['route']}, {'long_name': 'Zug', 'short_name': 'Zug', 'types': ['locality', 'political']}, {'long_name': 'Zug', 'short_name': 'Zug', 'types': ['administrative_area_level_2', 'political']}, {'long_name': 'Zug', 'short_name': 'ZG', 'types': ['administrative_area_level_1', 'political']}, {'long_name': 'Switzerland', 'short_name': 'CH', 'types': ['country', 'political']}, {'long_name': '6317', 'short_name': '6317', 'types': ['postal_code']}], 'formatted_address': 'Tellenmattstrasse 33, 6317 Oberwil bei Zug, Switzerland', 'geometry': {'location': {'lat': 47.14886389999999, 'lng': 8.5099052}, 'location_type': 'ROOFTOP', 'viewport': {'northeast': {'lat': 47.15021288029149, 'lng': 8.511254180291502}, 'southwest': {'lat': 47.1475149197085, 'lng': 8.508556219708499}}}, 'partial_match': True, 'place_id': 'ChIJUyaGP8OqmkcRBWTW5uxgF2A', 'plus_code': {'compound_code': '4GX5+GX Zug, Switzerland', 'global_code': '8FVC4GX5+GX'}, 'types': ['street_address']}], 'status': 'OK'}","Tellenmattstrasse 33, 6317 Oberwil bei Zug"
74,"{'results': [{'address_components': [{'long_name': '7', 'short_name': '7', 'types': ['street_number']}, {'long_name': 'Rosenweg', 'short_name': 'Rosenweg', 'types': ['route']}, {'long_name': 'Baar', 'short_name': 'Baar', 'types': ['locality', 'political']}, {'long_name': 'Zug', 'short_name': 'Zug', 'types': ['administrative_area_level_2', 'political']}, {'long_name': 'Zug', 'short_name': 'ZG', 'types': ['administrative_area_level_1', 'political']}, {'long_name': 'Switzerland', 'short_name': 'CH', 'types': ['country', 'political']}, {'long_name': '6340', 'short_name': '6340', 'types': ['postal_code']}], 'formatted_address': 'Rosenweg 7, 6340 Baar, Switzerland', 'geometry': {'bounds': {'northeast': {'lat': 47.1860103, 'lng': 8.5222915}, 'southwest': {'lat': 47.18587609999999, 'lng': 8.5221284}}, 'location': {'lat': 47.1859322, 'lng': 8.5221939}, 'location_type': 'ROOFTOP', 'viewport': {'northeast': {'lat': 47.1872921802915, 'lng': 8.523558930291502}, 'southwest': {'lat': 47.1845942197085, 'lng': 8.520860969708497}}}, 'partial_match': True, 'place_id': 'ChIJb_cy_kWqmkcRbGZrvDNp4Qg', 'types': ['premise']}], 'status': 'OK'}","Rosenweg 7, 6340 Baar"
75,"{'results': [{'address_components': [{'long_name': '37', 'short_name': '37', 'types': ['street_number']}, {'long_name': 'Tellenmattstrasse', 'short_name': 'Tellenmattstrasse', 'types': ['route']}, {'long_name': 'Zug', 'short_name': 'Zug', 'types': ['locality', 'political']}, {'long_name': 'Zug', 'short_name': 'Zug', 'types': ['administrative_area_level_2', 'political']}, {'long_name': 'Zug', 'short_name': 'ZG', 'types': ['administrative_area_level_1', 'political']}, {'long_name': 'Switzerland', 'short_name': 'CH', 'types': ['country', 'political']}, {'long_name': '6317', 'short_name': '6317', 'types': ['postal_code']}], 'formatted_address': 'Tellenmattstrasse 37, 6317 Oberwil bei Zug, Switzerland', 'geometry': {'bounds': {'northeast': {'lat': 47.1484528, 'lng': 8.5100457}, 'southwest': {'lat': 47.148297, 'lng': 8.5098338}}, 'location': {'lat': 47.1483504, 'lng': 8.509939}, 'location_type': 'ROOFTOP', 'viewport': {'northeast': {'lat': 47.1497238802915, 'lng': 8.5112887302915}, 'southwest': {'lat': 47.1470259197085, 'lng': 8.508590769708496}}}, 'partial_match': True, 'place_id': 'ChIJGd55Q8OqmkcRsDEAOOjvAJQ', 'types': ['premise']}], 'status': 'OK'}","Tellenmattstrasse 37, 6317 Oberwil b. Zug"
76,"{'results': [{'address_components': [{'long_name': '5', 'short_name': '5', 'types': ['street_number']}, {'long_name': 'Rosenweg', 'short_name': 'Rosenweg', 'types': ['route']}, {'long_name': 'Buonas', 'short_name': 'Buonas', 'types': ['locality', 'political']}, {'long_name': 'Zug', 'short_name': 'Zug', 'types': ['administrative_area_level_2', 'political']}, {'long_name': 'Zug', 'short_name': 'ZG', 'types': ['administrative_area_level_1', 'political']}, {'long_name': 'Switzerland', 'short_name': 'CH', 'types': ['country', 'political']}, {'long_name': '6343', 'short_name': '6343', 'types': ['postal_code']}], 'formatted_address': 'Rosenweg 5, 6343 Buonas, Switzerland', 'geometry': {'location': {'lat': 47.1423078, 'lng': 8.453142399999999}, 'location_type': 'ROOFTOP', 'viewport': {'northeast': {'lat': 47.14365678029149, 'lng': 8.4544913802915}, 'southwest': {'lat': 47.14095881970849, 'lng': 8.451793419708496}}}, 'partial_match': True, 'place_id': 'ChIJ-_sFNBkAkEcRrH0_ulBrETw', 'plus_code': {'compound_code': '4FR3+W7 Risch-Rotkreuz, Switzerland', 'global_code': '8FVC4FR3+W7'}, 'types': ['street_address']}], 'status': 'OK'}","Rosenweg 5, 6343 Buonas"
77,"{'results': [{'address_components': [{'long_name': '38', 'short_name': '38', 'types': ['street_number']}, {'long_name': 'Tellenmattstrasse', 'short_name': 'Tellenmattstrasse', 'types': ['route']}, {'long_name': 'Zug', 'short_name': 'Zug', 'types': ['locality', 'political']}, {'long_name': 'Zug', 'short_name': 'Zug', 'types': ['administrative_area_level_2', 'political']}, {'long_name': 'Zug', 'short_name': 'ZG', 'types': ['administrative_area_level_1', 'political']}, {'long_name': 'Switzerland', 'short_name': 'CH', 'types': ['country', 'political']}, {'long_name': '6317', 'short_name': '6317', 'types': ['postal_code']}], 'formatted_address': 'Tellenmattstrasse 38, 6317 Oberwil bei Zug, Switzerland', 'geometry': {'bounds': {'northeast': {'lat': 47.14783490000001, 'lng': 8.5093465}, 'southwest': {'lat': 47.1476074, 'lng': 8.5090979}}, 'location': {'lat': 47.1477336, 'lng': 8.5092114}, 'location_type': 'ROOFTOP', 'viewport': {'northeast': {'lat': 47.14907013029151, 'lng': 8.510571180291503}, 'southwest': {'lat': 47.14637216970851, 'lng': 8.507873219708499}}}, 'partial_match': True, 'place_id': 'ChIJzw_NYcOqmkcRympMwBqa71k', 'types': ['premise']}], 'status': 'OK'}","Tellenmattstrasse 38, 6317 Oberwil bei Zug"
78,"{'results': [{'address_components': [{'long_name': '39', 'short_name': '39', 'types': ['street_number']}, {'long_name': 'Tellenmattstrasse', 'short_name': 'Tellenmattstrasse', 'types': ['route']}, {'long_name': 'Zug', 'short_name': 'Zug', 'types': ['locality', 'political']}, {'long_name': 'Zug', 'short_name': 'Zug', 'types': ['administrative_area_level_2', 'political']}, {'long_name': 'Zug', 'short_name': 'ZG', 'types': ['administrative_area_level_1', 'political']}, {'long_name': 'Switzerland', 'short_name': 'CH', 'types': ['country', 'political']}, {'long_name': '6317', 'short_name': '6317', 'types': ['postal_code']}], 'formatted_address': 'Tellenmattstrasse 39, 6317 Oberwil bei Zug, Switzerland', 'geometry': {'bounds': {'northeast': {'lat': 47.14816099999999, 'lng': 8.5099263},